#------------------------------------------------------------------------------
#
#   Created by  : [OpenWorks] Log Export Utility (LEXP)
#   Created on  : 2007-05-07 11:57:07
#   Project     : NORNE
#   User        : JSE
#   Interpreter : JSE
#
#------------------------------------------------------------------------------
~VERSION INFORMATION
VERS. 2.0 : CWLS Log ASCII Standard - version 2.0
WRAP.  NO : One line per depth step
~WELL INFORMATION
#MNEMONIC   .UNIT                                           VALUE :DESCRIPTION
#------------------------------------------------------------------------------
STRT        .M                                          1268.1250 :START DEPTH
STOP        .M                                          2919.8750 :STOP DEPTH
STEP        .M                                             0.1250 :STEP
NULL        .                                           -999.2500 :NULL VALUE
COMP        .                                             STATOIL :COMPANY
WELL        .                                       6608/10-B-4 H :WELL
FLD         .                                               NORNE :FIELD
LOC         .                                             UNKNOWN :LOCATION
CNTY        .                                             UNKNOWN :COUNTY
STAT        .                                             UNKNOWN :STATE
CTRY        .                                              Norway :COUNTRY
SRVC        .                                             UNKNOWN :SERVICE COMPANY
DATE        .                                             UNKNOWN :LOG DATE
UWI         .                                    NO 6608/10-B-4 H :UNIQUE WELL ID
XCOORD      .                                       457114.155174 :SURFACE X
YCOORD      .                                      7322136.377523 :SURFACE Y
LAT         .                                           66.015409 :LATITUDE
LON         .                                            8.054547 :LONGITUDE
ELEV        .M                                            22.0000 :SURFACE ELEV
ELEV_TYPE   .                                                  KB :ELEV TYPE
~CURVE INFORMATION
#MNEMONIC.UNIT        API CODE       : CURVE DESCRIPTION
#------------------------------------------------------------------------------
DEPTH    .M                          : Measured Depth
TVD      .M                          : True Vertical Depth (TVD)
TVDSS    .M                          : True Vertical Depth (TVDSS)
DT       .us/ft                      : DT:UNKNOWN:rC:NONE:v1 
DTS      .us/ft                      : DTS:UNKNOWN:rC:NONE:v1 
GR       .API         UNKNOWN        : GR:GR:rC::v0 (auto-composite)
KLOGH    .mD          UNKNOWN        : KLOGH:PETROWORKS:rC:NONE:v1 
NPHI     .v/v_decimal                : NPHI:UNKNOWN:rC:NONE:v1 
PHIF     .v/v_decimal UNKNOWN        : PHIF:PETROWORKS:rC:NONE:v1 
RHOB     .g/cm3       UNKNOWN        : RHOB:UNKNOWN:rC:NONE:v1 
SW       .v/v_decimal UNKNOWN        : SW:PETROWORKS:rC:NONE:v1 
VSH      .v/v_decimal UNKNOWN        : VSH:PETROWORKS:rC:NONE:v1 
~A     DEPTH         TVD       TVDSS           DT          DTS           GR        KLOGH         NPHI         PHIF         RHOB           SW          VSH
# ...
   2893.1250   2869.1233  -2847.1233      83.1099     152.4896   -9999.0000       0.0077     -99.9900       0.1312       2.4647       1.0000       0.0010
   2893.2500   2869.2483  -2847.2483      83.4417     154.3067   -9999.0000       0.0077     -99.9900       0.1312       2.4647       1.0000       0.0010
   2893.3750   2869.3733  -2847.3733      83.8556     156.2638   -9999.0000       0.0064     -99.9900       0.1271       2.4712       1.0000       0.0010
   2893.5000   2869.4983  -2847.4983      84.3061     158.2398   -9999.0000       0.0047     -99.9900       0.1200       2.4823       1.0000       0.0010
   2893.6250   2869.6233  -2847.6233      84.7419     160.1222   -9999.0000       0.0033     -99.9900       0.1122       2.4944       1.0000       0.0010
   2893.7500   2869.7483  -2847.7483      85.0668     161.7025   -9999.0000       0.0026     -99.9900       0.1070       2.5026       1.0000       0.0010
   2893.8750   2869.8733  -2847.8733      85.2861     162.8190   -9999.0000       0.0023     -99.9900       0.1040       2.5054       1.0000       0.0010
   2894.0000   2869.9983  -2847.9983      85.4236     163.4554   -9999.0000       0.0019     -99.9900       0.1000       2.5060       1.0000       0.0010
   2894.1250   2870.1233  -2848.1233      85.5064     163.6382   -9999.0000       0.0018     -99.9900       0.0991       2.5057       1.0000       0.0010
   2894.2500   2870.2483  -2848.2483      85.5636     163.4386   -9999.0000       0.0018     -99.9900       0.0991       2.5051       1.0000       0.0010
   2894.3750   2870.3733  -2848.3733      85.6194     162.9652   -9999.0000       0.0019     -99.9900       0.0998       2.5060       1.0000       0.0010
   2894.5000   2870.4983  -2848.4983      85.6580     162.2720   -9999.0000    -999.2500     -99.9900    -999.2500    -999.2500    -999.2500       0.0010
   2894.6250   2870.6233  -2848.6233      85.6578     161.3950   -9999.0000    -999.2500     -99.9900    -999.2500    -999.2500    -999.2500       0.0010
   2894.7500   2870.7483  -2848.7483      85.6101     160.3496   -9999.0000    -999.2500     -99.9900    -999.2500    -999.2500    -999.2500       0.0010
   2894.8750   2870.8733  -2848.8733      85.5158     159.1899   -9999.0000    -999.2500     -99.9900    -999.2500    -999.2500    -999.2500       0.0010
   2895.0000   2870.9983  -2848.9983      85.3846     158.0061   -9999.0000    -999.2500     -99.9900    -999.2500    -999.2500    -999.2500       0.0010
   2895.1250   2871.1233  -2849.1233      85.2344     156.9435   -9999.0000    -999.2500     -99.9900    -999.2500    -999.2500    -999.2500       0.0010
   2895.2500   2871.2483  -2849.2483      85.0962     156.0568   -9999.0000    -999.2500     -99.9900    -999.2500    -999.2500    -999.2500       0.0010
   2895.3750   2871.3733  -2849.3733      84.9711     155.3923   -9999.0000    -999.2500     -99.9900    -999.2500    -999.2500    -999.2500       0.0010
   2895.5000   2871.4983  -2849.4983      84.8619     154.9949   -9999.0000    -999.2500     -99.9900    -999.2500    -999.2500    -999.2500       0.0010
   2895.6250   2871.6233  -2849.6233      84.7773     154.9099   -9999.0000    -999.2500     -99.9900    -999.2500    -999.2500    -999.2500       0.0010
   2895.7500   2871.7483  -2849.7483      84.7388     155.1954   -9999.0000    -999.2500     -99.9900    -999.2500    -999.2500    -999.2500       0.0010
   2895.8750   2871.8733  -2849.8733      84.8048     155.8583   -9999.0000    -999.2500     -99.9900    -999.2500    -999.2500    -999.2500       0.0010
   2896.0000   2871.9983  -2849.9983      84.9864     156.6370   -9999.0000    -999.2500     -99.9900    -999.2500    -999.2500    -999.2500       0.0010
   2896.1250   2872.1233  -2850.1233      85.2773     157.4162   -9999.0000    -999.2500     -99.9900    -999.2500    -999.2500    -999.2500       0.0010
   2896.2500   2872.2483  -2850.2483      85.6468     158.1127   -9999.0000    -999.2500     -99.9900    -999.2500    -999.2500    -999.2500       0.0010
   2896.3750   2872.3733  -2850.3733      86.0449     158.6776   -9999.0000    -999.2500     -99.9900    -999.2500    -999.2500    -999.2500       0.0010
   2896.5000   2872.4983  -2850.4983      86.4010     159.0895   -9999.0000    -999.2500     -99.9900    -999.2500    -999.2500    -999.2500       0.0010
   2896.6250   2872.6233  -2850.6233      86.6812     159.4102   -9999.0000    -999.2500     -99.9900    -999.2500    -999.2500    -999.2500       0.0010
   2896.7500   2872.7483  -2850.7483      86.8930     159.7581   -9999.0000    -999.2500     -99.9900    -999.2500    -999.2500    -999.2500       0.0010
   2896.8750   2872.8733  -2850.8733      87.0269     160.1885   -9999.0000    -999.2500     -99.9900    -999.2500    -999.2500    -999.2500       0.0010
   2897.0000   2872.9983  -2850.9983      87.0691     160.7144   -9999.0000    -999.2500     -99.9900    -999.2500    -999.2500    -999.2500       0.0010
   2897.1250   2873.1233  -2851.1233      87.0040     161.2940   -9999.0000    -999.2500     -99.9900    -999.2500    -999.2500    -999.2500       0.0010
   2897.2500   2873.2483  -2851.2483      86.8287     161.8315   -9999.0000    -999.2500     -99.9900    -999.2500    -999.2500    -999.2500       0.0010
   2897.3750   2873.3733  -2851.3733      86.6330     162.2077   -9999.0000    -999.2500     -99.9900    -999.2500    -999.2500    -999.2500       0.0010
   2897.5000   2873.4983  -2851.4983      86.4467     162.3599   -9999.0000    -999.2500     -99.9900    -999.2500    -999.2500    -999.2500       0.0010
   2897.6250   2873.6233  -2851.6233      86.2791     162.2187   -9999.0000    -999.2500     -99.9900    -999.2500    -999.2500    -999.2500       0.0010
   2897.7500   2873.7483  -2851.7483      86.1207     161.7178   -9999.0000    -999.2500     -99.9900    -999.2500    -999.2500    -999.2500       0.0010
   2897.8750   2873.8733  -2851.8733      85.9353     160.7455   -9999.0000    -999.2500     -99.9900    -999.2500    -999.2500    -999.2500       0.0010
   2898.0000   2873.9983  -2851.9983      85.7165     159.4451   -9999.0000    -999.2500     -99.9900    -999.2500    -999.2500    -999.2500       0.0010
   2898.1250   2874.1233  -2852.1233      85.4994     158.1053   -9999.0000    -999.2500     -99.9900    -999.2500    -999.2500    -999.2500       0.0010
   2898.2500   2874.2483  -2852.2483      85.3011     156.8800   -9999.0000    -999.2500     -99.9900    -999.2500    -999.2500    -999.2500       0.0010
   2898.3750   2874.3733  -2852.3733      85.1305     155.8617   -9999.0000    -999.2500     -99.9900    -999.2500    -999.2500    -999.2500       0.0010
   2898.5000   2874.4980  -2852.4980      84.9873     155.0737   -9999.0000    -999.2500     -99.9900    -999.2500    -999.2500    -999.2500       0.0010
   2898.6250   2874.6230  -2852.6230      84.8529     154.5257   -9999.0000    -999.2500     -99.9900    -999.2500    -999.2500    -999.2500       0.0010
   2898.7500   2874.7480  -2852.7480      84.7111     154.1534   -9999.0000    -999.2500     -99.9900    -999.2500    -999.2500    -999.2500       0.0010
   2898.8750   2874.8730  -2852.8730      84.5577     153.9217   -9999.0000    -999.2500     -99.9900    -999.2500    -999.2500    -999.2500       0.0010
   2899.0000   2874.9980  -2852.9980      84.3995     153.8030   -9999.0000    -999.2500     -99.9900    -999.2500    -999.2500    -999.2500       0.0010
   2899.1250   2875.1230  -2853.1230      84.2494     153.7624   -9999.0000    -999.2500     -99.9900    -999.2500    -999.2500    -999.2500       0.0010
   2899.2500   2875.2480  -2853.2480      84.1255     153.7460   -9999.0000    -999.2500     -99.9900    -999.2500    -999.2500    -999.2500       0.0010
   2899.3750   2875.3730  -2853.3730      84.0410     153.7204   -9999.0000    -999.2500     -99.9900    -999.2500    -999.2500    -999.2500       0.0010
   2899.5000   2875.4980  -2853.4980      83.9891     153.7071   -9999.0000    -999.2500     -99.9900    -999.2500    -999.2500    -999.2500       0.0010
