#------------------------------------------------------------------------------
#
#   Created by  : [OpenWorks] Log Export Utility (LEXP)
#   Created on  : 2007-05-07 11:57:07
#   Project     : NORNE
#   User        : JSE
#   Interpreter : JSE
#
#------------------------------------------------------------------------------
~VERSION INFORMATION
VERS. 2.0 : CWLS Log ASCII Standard - version 2.0
WRAP.  NO : One line per depth step
~WELL INFORMATION
#MNEMONIC   .UNIT                                           VALUE :DESCRIPTION
#------------------------------------------------------------------------------
STRT        .M                                          1268.1250 :START DEPTH
STOP        .M                                          2919.8750 :STOP DEPTH
STEP        .M                                             0.1250 :STEP
NULL        .                                           -999.2500 :NULL VALUE
COMP        .                                             STATOIL :COMPANY
WELL        .                                       6608/10-B-4 H :WELL
FLD         .                                               NORNE :FIELD
LOC         .                                             UNKNOWN :LOCATION
CNTY        .                                             UNKNOWN :COUNTY
STAT        .                                             UNKNOWN :STATE
CTRY        .                                              Norway :COUNTRY
SRVC        .                                             UNKNOWN :SERVICE COMPANY
DATE        .                                             UNKNOWN :LOG DATE
UWI         .                                    NO 6608/10-B-4 H :UNIQUE WELL ID
XCOORD      .                                       457114.155174 :SURFACE X
YCOORD      .                                      7322136.377523 :SURFACE Y
LAT         .                                           66.015409 :LATITUDE
LON         .                                            8.054547 :LONGITUDE
ELEV        .M                                            22.0000 :SURFACE ELEV
ELEV_TYPE   .                                                  KB :ELEV TYPE
~CURVE INFORMATION
#MNEMONIC.UNIT        API CODE       : CURVE DESCRIPTION
#------------------------------------------------------------------------------
DEPTH    .M                          : Measured Depth
TVD      .M                          : True Vertical Depth (TVD)
TVDSS    .M                          : True Vertical Depth (TVDSS)
DT       .us/ft                      : DT:UNKNOWN:rC:NONE:v1 
DTS      .us/ft                      : DTS:UNKNOWN:rC:NONE:v1 
GR       .API         UNKNOWN        : GR:GR:rC::v0 (auto-composite)
KLOGH    .mD          UNKNOWN        : KLOGH:PETROWORKS:rC:NONE:v1 
NPHI     .v/v_decimal                : NPHI:UNKNOWN:rC:NONE:v1 
PHIF     .v/v_decimal UNKNOWN        : PHIF:PETROWORKS:rC:NONE:v1 
RHOB     .g/cm3       UNKNOWN        : RHOB:UNKNOWN:rC:NONE:v1 
SW       .v/v_decimal UNKNOWN        : SW:PETROWORKS:rC:NONE:v1 
VSH      .v/v_decimal UNKNOWN        : VSH:PETROWORKS:rC:NONE:v1 
~A     DEPTH         TVD       TVDSS           DT          DTS           GR        KLOGH         NPHI         PHIF         RHOB           SW          VSH
# ...
   2574.6250   2550.6277  -2528.6277     111.0901     183.8446      71.1237     665.1464       0.1659       0.3083       2.0691       0.1378       0.0010
   2574.7500   2550.7527  -2528.7527     111.2576     184.5441      70.2303     816.9284       0.1649       0.3163       2.0689       0.1345       0.0010
   2574.8750   2550.8777  -2528.8777     111.1113     184.8384      73.5205     916.5986       0.1664       0.3208       2.0645       0.1323       0.0010
   2575.0000   2551.0024  -2529.0024     110.7609     184.6617      76.2487     847.2041       0.1768       0.3177       2.0610       0.1343       0.0010
   2575.1250   2551.1274  -2529.1274     110.3436     184.0687      75.4631     796.9785       0.1862       0.3153       2.0623       0.1325       0.0010
   2575.2500   2551.2524  -2529.2524     110.0151     183.2684      76.2517     962.6661       0.1366       0.3227       2.0697       0.1136       0.0010
   2575.3750   2551.3774  -2529.3774     109.9036     182.5650      67.5105     583.5486       0.1465       0.3031       2.0692       0.1173       0.0010
   2575.5000   2551.5024  -2529.5024     109.9436     181.9501      72.9735     835.1622       0.1668       0.3171       2.0563       0.1101       0.0010
   2575.6250   2551.6274  -2529.6274     110.0816     181.3540      75.3274    1474.5271       0.1885       0.3393       2.0344       0.1033       0.0010
   2575.7500   2551.7524  -2529.7524     110.2748     180.7479      73.5888    1126.0435       0.1932       0.3288       2.0086       0.1064       0.0227
   2575.8750   2551.8774  -2529.8774     110.4901     180.1510      78.7329     817.5543       0.1627       0.3163       1.9850       0.1097       0.0142
   2576.0000   2552.0024  -2530.0024     110.6656     179.6513      69.1994    1941.6888       0.1490       0.3500       1.9727       0.1029       0.0010
   2576.1250   2552.1274  -2530.1274     110.6384     179.3679      74.3068    2000.0000       0.1544       0.3537       1.9710       0.1050       0.0010
   2576.2500   2552.2524  -2530.2524     110.3191     179.3033      76.4274    2000.0000       0.1692       0.3559       1.9773       0.1060       0.0010
   2576.3750   2552.3774  -2530.3774     109.6903     179.3747      76.5885    2000.0000       0.1861       0.3600       1.9893       0.1090       0.0010
   2576.5000   2552.5024  -2530.5024     108.8069     179.4657      77.1368    1852.4172       0.2025       0.3482       2.0054       0.1208       0.0010
   2576.6250   2552.6274  -2530.6274     107.7910     179.4540      73.9180     992.1253       0.2251       0.3238       2.0270       0.1405       0.0367
   2576.7500   2552.7524  -2530.7524     106.9219     179.2448      71.6795     882.0181       0.2010       0.3193       2.0561       0.1449       0.0156
   2576.8750   2552.8774  -2530.8774     106.2464     178.9563      75.0241     668.7896       0.2198       0.3085       2.0888       0.1569       0.0465
   2577.0000   2553.0024  -2531.0024     105.7980     178.7176      78.2357     548.3806       0.2344       0.3007       2.1224       0.1641       0.0763
   2577.1250   2553.1274  -2531.1274     105.5872     178.6410      79.0340     481.3337       0.2349       0.2956       2.1544       0.1664       0.0836
   2577.2500   2553.2524  -2531.2524     105.6184     178.8041      77.9775     307.3647       0.2356       0.2782       2.1811       0.1795       0.0739
   2577.3750   2553.3774  -2531.3774     105.9294     179.2332      76.7295     155.0084       0.2321       0.2515       2.1918       0.2007       0.0623
   2577.5000   2553.5024  -2531.5024     106.4095     179.7725      77.7093     234.3219       0.1924       0.2676       2.1755       0.1818       0.0714
   2577.6250   2553.6274  -2531.6274     106.9290     180.3073      81.9554     197.2231       0.1836       0.2609       2.1415       0.1646       0.1107
   2577.7500   2553.7524  -2531.7524     107.4045     180.7963      86.2715     209.7631       0.1892       0.2633       2.0957       0.1564       0.1507
   2577.8750   2553.8774  -2531.8774     107.7798     181.2341      87.9004     318.1577       0.1803       0.2795       2.0448       0.1486       0.1505
   2578.0000   2554.0024  -2532.0024     108.0320     181.6460      86.3190    1777.0586       0.1373       0.3466       1.9970       0.1146       0.0010
   2578.1250   2554.1274  -2532.1274     108.1690     182.1183     126.5909    2000.0000       0.1385       0.3635       1.9621       0.1057       0.0010
   2578.2500   2554.2524  -2532.2524     108.2627     182.6249     111.9876    1425.6938       0.1326       0.3380       1.9420       0.1088       0.0010
   2578.3750   2554.3774  -2532.3774     108.3578     183.1216      99.8351    1567.3152       0.1198       0.3417       1.9336       0.1064       0.0010
   2578.5000   2554.5024  -2532.5024     108.4728     183.5779      98.1660    2000.0000       0.1080       0.3575       1.9352       0.0988       0.0010
   2578.6250   2554.6274  -2532.6274     108.6106     183.9964      93.3768    2000.0000       0.1049       0.3563       1.9442       0.0921       0.0010
   2578.7500   2554.7524  -2532.7524     108.7706     184.4665      90.0915    2000.0000       0.1012       0.3669       1.9532       0.0962       0.0010
   2578.8750   2554.8774  -2532.8774     108.9749     185.2591      95.2725    2000.0000       0.1406       0.3576       1.9517       0.1056       0.0010
   2579.0000   2555.0024  -2533.0024     109.2646     186.3788      91.7224    2000.0000       0.1597       0.3684       1.9476       0.1019       0.0010
   2579.1250   2555.1274  -2533.1274     109.6610     187.7254      88.1702    2000.0000       0.1551       0.3832       1.9458       0.0956       0.0010
   2579.2500   2555.2524  -2533.2524     110.1592     189.1211      87.9851    2000.0000       0.1436       0.3825       1.9495       0.0944       0.0010
   2579.3750   2555.3774  -2533.3774     110.7267     190.3256      84.6382    2000.0000       0.1523       0.3818       1.9595       0.0933       0.0010
   2579.5000   2555.5024  -2533.5024     111.3076     190.9049      81.9602    2000.0000       0.1409       0.3802       1.9726       0.0897       0.0010
   2579.6250   2555.6274  -2533.6274     111.8495     190.9828      81.1297    2000.0000       0.1425       0.3782       1.9804       0.0936       0.0010
   2579.7500   2555.7524  -2533.7524     112.3178     190.8295      87.4566    2000.0000       0.1492       0.3746       1.9781       0.0980       0.0010
   2579.8750   2555.8774  -2533.8774     112.6904     190.6544      90.9405    2000.0000       0.1594       0.3731       1.9677       0.0986       0.0010
   2580.0000   2556.0024  -2534.0024     112.9595     190.6164      82.6830    2000.0000       0.1660       0.3774       1.9539       0.0965       0.0010
   2580.1250   2556.1274  -2534.1274     113.1350     190.7977      74.6983    2000.0000       0.1355       0.3811       1.9407       0.0936       0.0010
   2580.2500   2556.2524  -2534.2524     113.2983     191.2345      77.8012    2000.0000       0.1092       0.3852       1.9299       0.0850       0.0010
   2580.3750   2556.3774  -2534.3774     113.5202     191.7942      75.5809    2000.0000       0.1040       0.3838       1.9329       0.0822       0.0010
   2580.5000   2556.5024  -2534.5024     113.8026     192.3927      77.1647    2000.0000       0.1119       0.3797       1.9556       0.0838       0.0010
   2580.6250   2556.6274  -2534.6274     114.1239     192.9596      82.2333    2000.0000       0.1195       0.3650       1.9984       0.0963       0.0010
   2580.7500   2556.7524  -2534.7524     114.4473     193.4247      81.5666    1037.6630       0.1144       0.3256       2.0554       0.1588       0.0010
   2580.8750   2556.8774  -2534.8774     114.7377     193.4961      85.8035     391.4514       0.1152       0.2876       2.1071       0.2002       0.0010
   2581.0000   2557.0024  -2535.0024     114.9148     192.9256      86.1478     303.5761       0.1458       0.2777       2.1345       0.2136       0.0010
