#------------------------------------------------------------------------------
#
#   Created by  : [OpenWorks] Log Export Utility (LEXP)
#   Created on  : 2007-05-07 11:57:07
#   Project     : NORNE
#   User        : JSE
#   Interpreter : JSE
#
#------------------------------------------------------------------------------
~VERSION INFORMATION
VERS. 2.0 : CWLS Log ASCII Standard - version 2.0
WRAP.  NO : One line per depth step
~WELL INFORMATION
#MNEMONIC   .UNIT                                           VALUE :DESCRIPTION
#------------------------------------------------------------------------------
STRT        .M                                          1268.1250 :START DEPTH
STOP        .M                                          2919.8750 :STOP DEPTH
STEP        .M                                             0.1250 :STEP
NULL        .                                           -999.2500 :NULL VALUE
COMP        .                                             STATOIL :COMPANY
WELL        .                                       6608/10-B-4 H :WELL
FLD         .                                               NORNE :FIELD
LOC         .                                             UNKNOWN :LOCATION
CNTY        .                                             UNKNOWN :COUNTY
STAT        .                                             UNKNOWN :STATE
CTRY        .                                              Norway :COUNTRY
SRVC        .                                             UNKNOWN :SERVICE COMPANY
DATE        .                                             UNKNOWN :LOG DATE
UWI         .                                    NO 6608/10-B-4 H :UNIQUE WELL ID
XCOORD      .                                       457114.155174 :SURFACE X
YCOORD      .                                      7322136.377523 :SURFACE Y
LAT         .                                           66.015409 :LATITUDE
LON         .                                            8.054547 :LONGITUDE
ELEV        .M                                            22.0000 :SURFACE ELEV
ELEV_TYPE   .                                                  KB :ELEV TYPE
~CURVE INFORMATION
#MNEMONIC.UNIT        API CODE       : CURVE DESCRIPTION
#------------------------------------------------------------------------------
DEPTH    .M                          : Measured Depth
TVD      .M                          : True Vertical Depth (TVD)
TVDSS    .M                          : True Vertical Depth (TVDSS)
DT       .us/ft                      : DT:UNKNOWN:rC:NONE:v1 
DTS      .us/ft                      : DTS:UNKNOWN:rC:NONE:v1 
GR       .API         UNKNOWN        : GR:GR:rC::v0 (auto-composite)
KLOGH    .mD          UNKNOWN        : KLOGH:PETROWORKS:rC:NONE:v1 
NPHI     .v/v_decimal                : NPHI:UNKNOWN:rC:NONE:v1 
PHIF     .v/v_decimal UNKNOWN        : PHIF:PETROWORKS:rC:NONE:v1 
RHOB     .g/cm3       UNKNOWN        : RHOB:UNKNOWN:rC:NONE:v1 
SW       .v/v_decimal UNKNOWN        : SW:PETROWORKS:rC:NONE:v1 
VSH      .v/v_decimal UNKNOWN        : VSH:PETROWORKS:rC:NONE:v1 
~A     DEPTH         TVD       TVDSS           DT          DTS           GR        KLOGH         NPHI         PHIF         RHOB           SW          VSH
# ...
   2756.6250   2732.6250  -2710.6250      96.9457     170.2674      64.5164    2000.0000       0.2752       0.3253       2.1052       0.6438       0.0740
   2756.7500   2732.7500  -2710.7500      95.5263     167.9856      66.8191    1353.5238       0.2764       0.3088       2.1348       0.6711       0.1002
   2756.8750   2732.8750  -2710.8750      94.1623     165.9522      61.9666     452.7829       0.2504       0.2799       2.1877       0.7310       0.0450
   2757.0000   2733.0000  -2711.0000      92.9766     164.3661      60.5871     101.2750       0.2469       0.2404       2.2457       0.8023       0.0294
   2757.1250   2733.1250  -2711.1250      92.0863     163.2952      59.8261      39.3397       0.2692       0.2154       2.2884       0.8437       0.0208
   2757.2500   2733.2500  -2711.2500      91.6032     162.7132      58.9179      36.6524       0.3016       0.2135       2.2995       0.8204       0.0104
   2757.3750   2733.3750  -2711.3750      91.6210     162.5060      63.3990      72.9504       0.3148       0.2317       2.2720       0.7393       0.0605
   2757.5000   2733.5000  -2711.5000      92.3587     162.6532      57.9835     222.5088       0.3338       0.2612       2.2188       0.6939       0.0010
   2757.6250   2733.6250  -2711.6250      93.5294     163.2028      60.5615     590.3954       0.3141       0.2869       2.1747       0.6657       0.0291
   2757.7500   2733.7500  -2711.7500      94.9548     164.3494      61.9058     984.5450       0.3086       0.3004       2.1509       0.6597       0.0444
   2757.8750   2733.8750  -2711.8750      96.4516     166.1063      61.3449    1031.0731       0.3061       0.3017       2.1475       0.6674       0.0380
   2758.0000   2734.0000  -2712.0000      97.8498     168.3264      62.2619     816.3559       0.2855       0.2955       2.1582       0.6781       0.0484
   2758.1250   2734.1250  -2712.1250      98.9895     170.6337      66.7397     569.0673       0.3182       0.2860       2.1747       0.6893       0.0993
   2758.2500   2734.2500  -2712.2500      99.7955     172.6488      73.8022     470.9865       0.2935       0.2810       2.1835       0.7145       0.1796
   2758.3750   2734.3750  -2712.3750     100.3320     174.2878      73.1578     525.5389       0.2770       0.2839       2.1803       0.7037       0.1722
   2758.5000   2734.5000  -2712.5000     100.6467     175.5175      69.9148     664.8941       0.2750       0.2901       2.1693       0.6945       0.1354
   2758.6250   2734.6250  -2712.6250     100.7857     176.3036      68.3409     824.4076       0.2788       0.2958       2.1567       0.6863       0.1175
   2758.7500   2734.7500  -2712.7500     100.7837     176.6016      69.2454    1021.7823       0.2727       0.3014       2.1479       0.6700       0.1279
   2758.8750   2734.8750  -2712.8750     100.5819     176.2496      76.2025     985.6677       0.2841       0.3005       2.1463       0.6657       0.1912
   2759.0000   2735.0000  -2713.0000     100.1769     175.4509      70.8157    1002.0146       0.2738       0.3009       2.1453       0.6670       0.1456
   2759.1250   2735.1250  -2713.1250      99.5798     174.4612      69.0873    1055.5203       0.3025       0.3023       2.1440       0.6719       0.1260
   2759.2500   2735.2500  -2713.2500      98.7888     173.4398      71.3734    1075.8273       0.3190       0.3028       2.1446       0.6738       0.1520
   2759.3750   2735.3750  -2713.3750      97.8051     172.4727      74.1378     961.0767       0.2695       0.2998       2.1512       0.6713       0.1488
   2759.5000   2735.5000  -2713.5000      96.6293     171.5324      80.4432     619.7327       0.2179       0.2882       2.1709       0.6560       0.0197
   2759.6250   2735.6250  -2713.6250      95.3302     170.5580      73.3992     340.8447       0.2244       0.2724       2.1991       0.6511       0.0773
   2759.7500   2735.7500  -2713.7500      94.0344     169.4690      63.1144     169.7332       0.2338       0.2540       2.2296       0.6851       0.0581
   2759.8750   2735.8750  -2713.8750      92.8095     168.1878      60.6758      90.4311       0.2432       0.2374       2.2554       0.7242       0.0304
   2760.0000   2736.0000  -2714.0000      91.7137     166.6703      63.7415      64.3557       0.2501       0.2284       2.2693       0.7513       0.0653
   2760.1250   2736.1250  -2714.1250      90.7934     164.9080      59.8559      72.6159       0.2509       0.2316       2.2660       0.7585       0.0211
   2760.2500   2736.2500  -2714.2500      90.1115     162.8452      61.8292     128.0989       0.2617       0.2466       2.2512       0.7603       0.0435
   2760.3750   2736.3750  -2714.3750      89.5991     160.7212      69.8152     173.2538       0.2175       0.2545       2.2392       0.7505       0.1002
   2760.5000   2736.5000  -2714.5000      89.1491     158.7886      69.5197     175.1677       0.2240       0.2548       2.2340       0.7585       0.1184
   2760.6250   2736.6250  -2714.6250      88.6880     157.1721      65.6317     160.2223       0.2285       0.2525       2.2350       0.7738       0.0867
   2760.7500   2736.7500  -2714.7500      88.1683     155.9164      64.4904     142.3008       0.1872       0.2493       2.2409       0.7717       0.0194
   2760.8750   2736.8750  -2714.8750      87.5850     154.9884      63.6461     128.9376       0.1788       0.2467       2.2507       0.7694       0.0010
   2761.0000   2737.0000  -2715.0000      87.0479     154.3549      68.2957      87.1079       0.1936       0.2364       2.2686       0.7719       0.0705
   2761.1250   2737.1250  -2715.1250      86.6535     153.9533      64.7316      52.2697       0.2397       0.2229       2.2940       0.7859       0.0765
   2761.2500   2737.2500  -2715.2500      86.4411     153.8560      62.0373      24.7763       0.2455       0.2032       2.3201       0.8291       0.0459
   2761.3750   2737.3750  -2715.3750      86.4456     154.1690      60.9164      15.8762       0.2257       0.1914       2.3360       0.8659       0.0332
   2761.5000   2737.5000  -2715.5000      86.6997     154.9997      57.3614      20.4471       0.2473       0.1981       2.3303       0.8475       0.0010
   2761.6250   2737.6250  -2715.6250      87.2921     156.4389      62.5478      36.8295       0.2874       0.2136       2.3024       0.8018       0.0517
   2761.7500   2737.7500  -2715.7500      88.1854     158.4149      64.3840      69.8988       0.2519       0.2306       2.2760       0.8011       0.0725
   2761.8750   2737.8750  -2715.8750      89.2436     160.7720      70.4812      99.6246       0.2367       0.2399       2.2638       0.8444       0.1418
   2762.0000   2738.0000  -2716.0000      90.3532     163.3529      74.4923     107.2171       0.2340       0.2419       2.2649       0.8872       0.1811
   2762.1250   2738.1250  -2716.1250      91.4050     165.9795      73.8913      91.3363       0.2395       0.2376       2.2709       0.9127       0.1806
   2762.2500   2738.2500  -2716.2500      92.3100     168.4780      77.5130      72.3948       0.2903       0.2315       2.2660       0.9400       0.2217
   2762.3750   2738.3750  -2716.3750      92.9727     170.5866      71.9319     132.0047       0.2539       0.2474       2.2422       0.9141       0.1583
   2762.5000   2738.5000  -2716.5000      93.4521     172.3238      69.9392     253.9379       0.2479       0.2646       2.2197       0.9093       0.1357
   2762.6250   2738.6250  -2716.6250      93.7637     173.7364      72.8989     414.5574       0.2498       0.2776       2.2086       0.9325       0.1449
   2762.7500   2738.7500  -2716.7500      93.9404     174.9083      78.5075     465.7111       0.2685       0.2807       2.2115       0.9709       0.1956
   2762.8750   2738.8750  -2716.8750      94.0286     175.9206      82.1825     338.7692       0.3148       0.2723       2.2239       1.0000       0.2748
   2763.0000   2739.0000  -2717.0000      94.0901     176.7378      77.8634     282.2107       0.3205       0.2674       2.2313       1.0000       0.2257
