#------------------------------------------------------------------------------
#
#   Created by  : [OpenWorks] Log Export Utility (LEXP)
#   Created on  : 2007-05-07 11:57:07
#   Project     : NORNE
#   User        : JSE
#   Interpreter : JSE
#
#------------------------------------------------------------------------------
~VERSION INFORMATION
VERS. 2.0 : CWLS Log ASCII Standard - version 2.0
WRAP.  NO : One line per depth step
~WELL INFORMATION
#MNEMONIC   .UNIT                                           VALUE :DESCRIPTION
#------------------------------------------------------------------------------
STRT        .M                                          1268.1250 :START DEPTH
STOP        .M                                          2919.8750 :STOP DEPTH
STEP        .M                                             0.1250 :STEP
NULL        .                                           -999.2500 :NULL VALUE
COMP        .                                             STATOIL :COMPANY
WELL        .                                       6608/10-B-4 H :WELL
FLD         .                                               NORNE :FIELD
LOC         .                                             UNKNOWN :LOCATION
CNTY        .                                             UNKNOWN :COUNTY
STAT        .                                             UNKNOWN :STATE
CTRY        .                                              Norway :COUNTRY
SRVC        .                                             UNKNOWN :SERVICE COMPANY
DATE        .                                             UNKNOWN :LOG DATE
UWI         .                                    NO 6608/10-B-4 H :UNIQUE WELL ID
XCOORD      .                                       457114.155174 :SURFACE X
YCOORD      .                                      7322136.377523 :SURFACE Y
LAT         .                                           66.015409 :LATITUDE
LON         .                                            8.054547 :LONGITUDE
ELEV        .M                                            22.0000 :SURFACE ELEV
ELEV_TYPE   .                                                  KB :ELEV TYPE
~CURVE INFORMATION
#MNEMONIC.UNIT        API CODE       : CURVE DESCRIPTION
#------------------------------------------------------------------------------
DEPTH    .M                          : Measured Depth
TVD      .M                          : True Vertical Depth (TVD)
TVDSS    .M                          : True Vertical Depth (TVDSS)
DT       .us/ft                      : DT:UNKNOWN:rC:NONE:v1 
DTS      .us/ft                      : DTS:UNKNOWN:rC:NONE:v1 
GR       .API         UNKNOWN        : GR:GR:rC::v0 (auto-composite)
KLOGH    .mD          UNKNOWN        : KLOGH:PETROWORKS:rC:NONE:v1 
NPHI     .v/v_decimal                : NPHI:UNKNOWN:rC:NONE:v1 
PHIF     .v/v_decimal UNKNOWN        : PHIF:PETROWORKS:rC:NONE:v1 
RHOB     .g/cm3       UNKNOWN        : RHOB:UNKNOWN:rC:NONE:v1 
SW       .v/v_decimal UNKNOWN        : SW:PETROWORKS:rC:NONE:v1 
VSH      .v/v_decimal UNKNOWN        : VSH:PETROWORKS:rC:NONE:v1 
~A     DEPTH         TVD       TVDSS           DT          DTS           GR        KLOGH         NPHI         PHIF         RHOB           SW          VSH
# ...
   2730.6250   2706.6252  -2684.6252      97.3441     166.5020      67.5913     430.1184       0.2906       0.2652       2.1964       0.3226       0.1090
   2730.7500   2706.7502  -2684.7502      98.5487     169.4201      65.6938    2000.0000       0.2836       0.3090       2.1464       0.2765       0.0875
   2730.8750   2706.8752  -2684.8752      99.4377     172.0828      61.0792    2000.0000       0.2706       0.3283       2.1085       0.2617       0.0349
   2731.0000   2707.0002  -2685.0002      99.9284     174.2202      69.3490    2000.0000       0.3385       0.3410       2.0921       0.2528       0.1290
   2731.1250   2707.1252  -2685.1252      99.9961     175.6438      66.7485    2000.0000       0.3133       0.3390       2.0948       0.2422       0.0994
   2731.2500   2707.2502  -2685.2502      99.7821     176.4869      72.5107    2000.0000       0.2760       0.3339       2.1072       0.2500       0.0870
   2731.3750   2707.3752  -2685.3752      99.3712     176.7808      73.5248    2000.0000       0.2625       0.3259       2.1240       0.2701       0.0656
   2731.5000   2707.5002  -2685.5002      98.8608     176.5936      69.8247    2000.0000       0.2730       0.3162       2.1400       0.2974       0.1204
   2731.6250   2707.6252  -2685.6252      98.3561     176.0355      75.4429    2000.0000       0.2784       0.3094       2.1507       0.3368       0.1527
   2731.7500   2707.7502  -2685.7502      97.9828     175.2257      77.4031    2000.0000       0.2914       0.3021       2.1622       0.3534       0.2092
   2731.8750   2707.8752  -2685.8752      97.8065     174.3600      69.9129     869.8317       0.2411       0.2809       2.1847       0.3641       0.1057
   2732.0000   2708.0002  -2686.0002      97.8283     173.5365      61.7035     483.5786       0.2549       0.2679       2.2113       0.3466       0.0421
   2732.1250   2708.1252  -2686.1252      98.0101     172.7979      59.4814     284.0150       0.3028       0.2560       2.2362       0.3311       0.0168
   2732.2500   2708.2502  -2686.2502      98.2837     172.1753      63.4102     144.7713       0.3160       0.2410       2.2549       0.3401       0.0615
   2732.3750   2708.3752  -2686.3752      98.5520     171.7199      59.5059     114.7462       0.2550       0.2358       2.2656       0.3634       0.0171
   2732.5000   2708.5002  -2686.5002      98.6789     171.5197      60.7491     108.8595       0.2576       0.2346       2.2755       0.3892       0.0312
   2732.6250   2708.6252  -2686.6252      98.6631     171.5039      59.7106      62.3478       0.2515       0.2222       2.2987       0.4354       0.0194
   2732.7500   2708.7502  -2686.7502      98.5252     171.6221      60.2222      17.7816       0.2541       0.1943       2.3348       0.5160       0.0252
   2732.8750   2708.8752  -2686.8752      98.2895     171.8180      61.2262       5.3177       0.2678       0.1674       2.3783       0.6040       0.0367
   2733.0000   2709.0002  -2687.0002      97.9791     172.0241      58.6086       2.2727       0.2787       0.1484       2.4215       0.6703       0.0069
   2733.1250   2709.1252  -2687.1252      97.5968     172.0840      57.8357       0.6876       0.2587       0.1218       2.4626       0.7940       0.0010
   2733.2500   2709.2502  -2687.2502      97.1297     171.9137      58.2681       0.3021       0.2891       0.1034       2.4908       0.9513       0.0030
   2733.3750   2709.3752  -2687.3752      96.5940     171.5715      62.8505       0.2571       0.3027       0.0998       2.4963       1.0000       0.0551
   2733.5000   2709.5002  -2687.5002      96.0057     171.0719      69.0956       0.3768       0.2972       0.1084       2.4832       1.0000       0.1261
   2733.6250   2709.6252  -2687.6252      95.3862     170.4258      72.3141       0.6627       0.2924       0.1209       2.4638       0.9502       0.1626
   2733.7500   2709.7502  -2687.7502      94.7540     169.6370      66.4680       0.7834       0.3200       0.1247       2.4580       0.9408       0.0968
   2733.8750   2709.8752  -2687.8752      94.1885     168.8903      69.2533       0.4774       0.3093       0.1136       2.4751       0.9964       0.1279
   2734.0000   2710.0002  -2688.0002      93.7167     168.3742      74.9158       0.3110       0.2572       0.1041       2.4897       1.0000       0.1922
   2734.1250   2710.1252  -2688.1252      93.4032     168.2260      74.4781       0.3557       0.2474       0.1071       2.4852       1.0000       0.1873
   2734.2500   2710.2502  -2688.2502      93.3038     168.5320      69.6727       0.8538       0.2759       0.1266       2.4551       0.9198       0.1327
   2734.3750   2710.3752  -2688.3752      93.4601     169.3180      69.0879       2.9376       0.2839       0.1541       2.4049       0.8115       0.1261
   2734.5000   2710.5000  -2688.5000      93.9024     170.5274      82.0020       9.3582       0.2219       0.1799       2.3598       0.7165       0.2728
   2734.6250   2710.6252  -2688.6252      94.5023     171.9293      79.4196      18.6366       0.2166       0.1953       2.3337       0.6789       0.2360
   2734.7500   2710.7500  -2688.7500      95.0999     173.3096      82.7198      31.5743       0.2316       0.2070       2.3122       0.6474       0.2532
   2734.8750   2710.8750  -2688.8750      95.5839     174.4611      86.7892      57.5050       0.2518       0.2204       2.2935       0.6161       0.2832
   2735.0000   2711.0000  -2689.0000      95.8650     175.2016      84.9815     127.2741       0.2644       0.2381       2.2822       0.5882       0.2817
   2735.1250   2711.1250  -2689.1250      95.8840     175.4057      75.6702      90.7211       0.2582       0.2306       2.2876       0.6261       0.2008
   2735.2500   2711.2500  -2689.2500      95.5449     175.0502      79.8360      37.8847       0.2898       0.2111       2.3196       0.6719       0.2481
   2735.3750   2711.3750  -2689.3750      94.9497     174.4726      75.4127      11.1654       0.2568       0.1839       2.3594       0.7441       0.1979
   2735.5000   2711.5000  -2689.5000      94.1995     173.8165      72.7725       4.9812       0.2402       0.1659       2.3879       0.7674       0.1679
   2735.6250   2711.6250  -2689.6250      93.3989     173.1646      73.2427       4.1256       0.2458       0.1617       2.3941       0.7720       0.1732
   2735.7500   2711.7500  -2689.7500      92.6510     172.5512      74.6766       6.2419       0.2508       0.1709       2.3750       0.7595       0.1895
   2735.8750   2711.8750  -2689.8750      92.0611     171.9555      79.2321      16.5336       0.2682       0.1926       2.3398       0.6961       0.2413
   2736.0000   2712.0000  -2690.0000      91.6540     171.4174      88.3616      43.7484       0.2471       0.2143       2.3121       0.6667       0.2843
   2736.1250   2712.1250  -2690.1250      91.3575     171.0141      84.3643      59.4588       0.2322       0.2212       2.2965       0.6658       0.2223
   2736.2500   2712.2500  -2690.2500      91.1470     170.6990      80.2855      49.1760       0.2248       0.2169       2.2957       0.6745       0.2087
   2736.3750   2712.3750  -2690.3750      91.0070     170.3688      81.9753      31.0879       0.2161       0.2067       2.3104       0.6888       0.2065
   2736.5000   2712.5000  -2690.5000      90.9289     169.8864      83.1889      15.8413       0.1951       0.1917       2.3386       0.7173       0.1790
   2736.6250   2712.6250  -2690.6250      90.8831     169.1614      87.2816       5.7891       0.2098       0.1692       2.3747       0.7904       0.2766
   2736.7500   2712.7500  -2690.7500      90.7905     168.3902      80.8278       2.7942       0.2461       0.1530       2.4067       0.8535       0.2595
   2736.8750   2712.8750  -2690.8750      90.6278     167.7516      75.4007       1.6559       0.2512       0.1414       2.4269       0.8713       0.1977
   2737.0000   2713.0000  -2691.0000      90.4034     167.3409      77.5072       1.3287       0.2359       0.1365       2.4331       0.8819       0.2218
