#------------------------------------------------------------------------------
#
#   Created by  : [OpenWorks] Log Export Utility (LEXP)
#   Created on  : 2007-05-07 11:57:07
#   Project     : NORNE
#   User        : JSE
#   Interpreter : JSE
#
#------------------------------------------------------------------------------
~VERSION INFORMATION
VERS. 2.0 : CWLS Log ASCII Standard - version 2.0
WRAP.  NO : One line per depth step
~WELL INFORMATION
#MNEMONIC   .UNIT                                           VALUE :DESCRIPTION
#------------------------------------------------------------------------------
STRT        .M                                          1268.1250 :START DEPTH
STOP        .M                                          2919.8750 :STOP DEPTH
STEP        .M                                             0.1250 :STEP
NULL        .                                           -999.2500 :NULL VALUE
COMP        .                                             STATOIL :COMPANY
WELL        .                                       6608/10-B-4 H :WELL
FLD         .                                               NORNE :FIELD
LOC         .                                             UNKNOWN :LOCATION
CNTY        .                                             UNKNOWN :COUNTY
STAT        .                                             UNKNOWN :STATE
CTRY        .                                              Norway :COUNTRY
SRVC        .                                             UNKNOWN :SERVICE COMPANY
DATE        .                                             UNKNOWN :LOG DATE
UWI         .                                    NO 6608/10-B-4 H :UNIQUE WELL ID
XCOORD      .                                       457114.155174 :SURFACE X
YCOORD      .                                      7322136.377523 :SURFACE Y
LAT         .                                           66.015409 :LATITUDE
LON         .                                            8.054547 :LONGITUDE
ELEV        .M                                            22.0000 :SURFACE ELEV
ELEV_TYPE   .                                                  KB :ELEV TYPE
~CURVE INFORMATION
#MNEMONIC.UNIT        API CODE       : CURVE DESCRIPTION
#------------------------------------------------------------------------------
DEPTH    .M                          : Measured Depth
TVD      .M                          : True Vertical Depth (TVD)
TVDSS    .M                          : True Vertical Depth (TVDSS)
DT       .us/ft                      : DT:UNKNOWN:rC:NONE:v1 
DTS      .us/ft                      : DTS:UNKNOWN:rC:NONE:v1 
GR       .API         UNKNOWN        : GR:GR:rC::v0 (auto-composite)
KLOGH    .mD          UNKNOWN        : KLOGH:PETROWORKS:rC:NONE:v1 
NPHI     .v/v_decimal                : NPHI:UNKNOWN:rC:NONE:v1 
PHIF     .v/v_decimal UNKNOWN        : PHIF:PETROWORKS:rC:NONE:v1 
RHOB     .g/cm3       UNKNOWN        : RHOB:UNKNOWN:rC:NONE:v1 
SW       .v/v_decimal UNKNOWN        : SW:PETROWORKS:rC:NONE:v1 
VSH      .v/v_decimal UNKNOWN        : VSH:PETROWORKS:rC:NONE:v1 
~A     DEPTH         TVD       TVDSS           DT          DTS           GR        KLOGH         NPHI         PHIF         RHOB           SW          VSH
# ...
   2776.1250   2752.1250  -2730.1250      90.5663     178.0767      79.0175     206.4749       0.2529       0.2489       2.2547       0.8824       0.2234
   2776.2500   2752.2500  -2730.2500      90.4770     177.8629      80.4879     234.5251       0.2347       0.2517       2.2498       0.8902       0.1616
   2776.3750   2752.3750  -2730.3750      90.3555     177.4638      79.0938     266.1978       0.2440       0.2546       2.2401       0.8650       0.1824
   2776.5000   2752.5000  -2730.5000      90.1898     176.7832      79.8009     349.4452       0.2467       0.2606       2.2315       0.8325       0.1763
   2776.6250   2752.6250  -2730.6250      89.9672     175.8316      80.7316     439.3442       0.2407       0.2657       2.2276       0.8135       0.1467
   2776.7500   2752.7500  -2730.7500      89.6883     174.7102      78.3893     408.2852       0.2360       0.2641       2.2310       0.8184       0.1364
   2776.8750   2752.8750  -2730.8750      89.3831     173.6362      71.0293     306.3004       0.2449       0.2577       2.2425       0.8303       0.1481
   2777.0000   2753.0000  -2731.0000      89.1089     172.8883      80.8711     152.1519       0.2279       0.2421       2.2642       0.8227       0.1635
   2777.1250   2753.1250  -2731.1250      88.9017     172.4406      81.2538      64.8170       0.2291       0.2231       2.2905       0.8592       0.2113
   2777.2500   2753.2500  -2731.2500      88.8143     172.2719      79.7380      25.3660       0.2244       0.2022       2.3172       0.9368       0.2454
   2777.3750   2753.3750  -2731.3750      88.9008     172.3703      81.7615      12.7651       0.2198       0.1869       2.3379       1.0000       0.2671
   2777.5000   2753.5000  -2731.5000      89.2086     172.7415      87.4767      10.2016       0.2407       0.1819       2.3452       1.0000       0.3350
   2777.6250   2753.6250  -2731.6250      89.7911     173.4845      83.2896      19.9010       0.2317       0.1968       2.3222       1.0000       0.2798
   2777.7500   2753.7500  -2731.7500      90.5238     174.4916      83.1288      92.2912       0.2237       0.2309       2.2802       0.9897       0.1767
   2777.8750   2753.8750  -2731.8750      91.2612     175.5660      75.9560     477.4109       0.2550       0.2676       2.2377       0.9976       0.1882
   2778.0000   2754.0000  -2732.0000      91.9133     176.5107      69.9237    1153.1887       0.2740       0.2872       2.2074       1.0000       0.1355
   2778.1250   2754.1250  -2732.1250      92.4239     177.1709      70.9513    1655.9194       0.2462       0.2953       2.1950       1.0000       0.0960
   2778.2500   2754.2500  -2732.2500      92.7778     177.4855      70.6330    1553.6735       0.2197       0.2939       2.1950       1.0000       0.0198
   2778.3750   2754.3750  -2732.3750      92.9226     177.5918      64.6464    1520.0898       0.2394       0.2934       2.1966       1.0000       0.0756
   2778.5000   2754.5000  -2732.5000      92.8426     177.6354      66.3312    1683.6187       0.2348       0.2957       2.1926       1.0000       0.0603
   2778.6250   2754.6250  -2732.6250      92.5362     177.5540      65.8585    1999.0095       0.2480       0.2995       2.1855       0.9874       0.0893
   2778.7500   2754.7500  -2732.7500      92.0424     177.2091      63.8826    2179.7458       0.2644       0.3014       2.1797       0.9654       0.0669
   2778.8750   2754.8750  -2732.8750      91.4350     176.4369      66.0237    2119.6523       0.2453       0.3008       2.1793       0.9834       0.0794
   2779.0000   2755.0000  -2733.0000      90.8395     175.1049      63.6754    2175.5042       0.2385       0.3014       2.1817       0.9866       0.0578
   2779.1250   2755.1250  -2733.1250      90.3566     173.4778      66.8090    2057.4170       0.2826       0.3001       2.1864       0.9897       0.1001
   2779.2500   2755.2500  -2733.2500      89.9620     171.8743      65.4764    1433.8049       0.2911       0.2921       2.1995       1.0000       0.0850
   2779.3750   2755.3750  -2733.3750      89.6338     170.4020      63.4833     705.3221       0.2707       0.2763       2.2234       0.9856       0.0623
   2779.5000   2755.5000  -2733.5000      89.3508     169.0919      63.5077     224.8079       0.2476       0.2508       2.2567       0.9477       0.0626
   2779.6250   2755.6250  -2733.6250      89.1010     167.9230      62.5890      56.8536       0.2488       0.2202       2.2940       1.0000       0.0515
   2779.7500   2755.7500  -2733.7500      88.8723     166.9445      57.8290      13.2846       0.2623       0.1878       2.3230       1.0000       0.0010
   2779.8750   2755.8750  -2733.8750      88.6290     166.2410      61.7588      11.3532       0.2415       0.1843       2.3381       1.0000       0.0427
   2780.0000   2756.0000  -2734.0000      88.3253     165.8287      65.9141      22.5351       0.2190       0.1995       2.3425       1.0000       0.0900
   2780.1250   2756.1250  -2734.1250      87.9462     165.6615      66.7962      23.0793       0.2143       0.2001       2.3417       1.0000       0.1000
   2780.2500   2756.2500  -2734.2500      87.5060     165.6387      64.8820      19.0958       0.2275       0.1958       2.3416       1.0000       0.0782
   2780.3750   2756.3750  -2734.3750      87.0695     165.6068      65.6385      17.3399       0.2115       0.1937       2.3456       1.0000       0.0868
   2780.5000   2756.5000  -2734.5000      86.7170     165.4577      71.3075      13.4739       0.2218       0.1881       2.3535       1.0000       0.1512
   2780.6250   2756.6250  -2734.6250      86.4540     165.2287      74.0391      10.6717       0.2165       0.1829       2.3646       1.0000       0.1823
   2780.7500   2756.7500  -2734.7500      86.2834     164.9225      74.7373       8.1682       0.2166       0.1769       2.3757       1.0000       0.1902
   2780.8750   2756.8750  -2734.8750      86.2057     164.5296      75.1606       6.1332       0.2185       0.1705       2.3834       1.0000       0.1950
   2781.0000   2757.0000  -2735.0000      86.2208     164.0294      76.6971       6.2272       0.1862       0.1709       2.3848       1.0000       0.2060
   2781.1250   2757.1250  -2735.1250      86.3488     163.3673      81.3338       6.8503       0.2194       0.1730       2.3799       1.0000       0.2651
   2781.2500   2757.2500  -2735.2500      86.5379     162.6574      84.8106       6.4766       0.2304       0.1717       2.3783       0.9908       0.3047
   2781.3750   2757.3750  -2735.3750      86.7331     162.0497      87.6758       5.3042       0.2373       0.1673       2.3834       0.9887       0.3372
   2781.5000   2757.5000  -2735.5000      86.8994     161.6748      88.3576       3.7723       0.2400       0.1597       2.3937       1.0000       0.3450
   2781.6250   2757.6250  -2735.6250      87.0135     161.6211      86.3961       2.5234       0.2290       0.1507       2.4051       1.0000       0.3227
   2781.7500   2757.7500  -2735.7500      87.0603     161.9091      87.1124       1.9141       0.1879       0.1446       2.4116       1.0000       0.2701
   2781.8750   2757.8750  -2735.8750      87.0112     162.3663      91.5255       1.8626       0.2120       0.1440       2.4143       1.0000       0.3453
   2782.0000   2758.0000  -2736.0000      86.8697     162.8435      92.5821       1.6471       0.2193       0.1412       2.4197       1.0000       0.3741
   2782.1250   2758.1250  -2736.1250      86.6534     163.3351      93.2288       1.3414       0.2167       0.1367       2.4280       1.0000       0.3772
   2782.2500   2758.2500  -2736.2500      86.4030     163.8635      98.2148       1.0573       0.2140       0.1314       2.4376       1.0000       0.3818
   2782.3750   2758.3750  -2736.3750      86.1792     164.4660     110.2288       0.8408       0.2167       0.1263       2.4467       1.0000       0.4021
   2782.5000   2758.5000  -2736.5000      86.0898     165.1790     101.5371       0.6391       0.2337       0.1201       2.4574       1.0000       0.4685
