#------------------------------------------------------------------------------
#
#   Created by  : [OpenWorks] Log Export Utility (LEXP)
#   Created on  : 2007-05-07 11:57:07
#   Project     : NORNE
#   User        : JSE
#   Interpreter : JSE
#
#------------------------------------------------------------------------------
~VERSION INFORMATION
VERS. 2.0 : CWLS Log ASCII Standard - version 2.0
WRAP.  NO : One line per depth step
~WELL INFORMATION
#MNEMONIC   .UNIT                                           VALUE :DESCRIPTION
#------------------------------------------------------------------------------
STRT        .M                                          1268.1250 :START DEPTH
STOP        .M                                          2919.8750 :STOP DEPTH
STEP        .M                                             0.1250 :STEP
NULL        .                                           -999.2500 :NULL VALUE
COMP        .                                             STATOIL :COMPANY
WELL        .                                       6608/10-B-4 H :WELL
FLD         .                                               NORNE :FIELD
LOC         .                                             UNKNOWN :LOCATION
CNTY        .                                             UNKNOWN :COUNTY
STAT        .                                             UNKNOWN :STATE
CTRY        .                                              Norway :COUNTRY
SRVC        .                                             UNKNOWN :SERVICE COMPANY
DATE        .                                             UNKNOWN :LOG DATE
UWI         .                                    NO 6608/10-B-4 H :UNIQUE WELL ID
XCOORD      .                                       457114.155174 :SURFACE X
YCOORD      .                                      7322136.377523 :SURFACE Y
LAT         .                                           66.015409 :LATITUDE
LON         .                                            8.054547 :LONGITUDE
ELEV        .M                                            22.0000 :SURFACE ELEV
ELEV_TYPE   .                                                  KB :ELEV TYPE
~CURVE INFORMATION
#MNEMONIC.UNIT        API CODE       : CURVE DESCRIPTION
#------------------------------------------------------------------------------
DEPTH    .M                          : Measured Depth
TVD      .M                          : True Vertical Depth (TVD)
TVDSS    .M                          : True Vertical Depth (TVDSS)
DT       .us/ft                      : DT:UNKNOWN:rC:NONE:v1 
DTS      .us/ft                      : DTS:UNKNOWN:rC:NONE:v1 
GR       .API         UNKNOWN        : GR:GR:rC::v0 (auto-composite)
KLOGH    .mD          UNKNOWN        : KLOGH:PETROWORKS:rC:NONE:v1 
NPHI     .v/v_decimal                : NPHI:UNKNOWN:rC:NONE:v1 
PHIF     .v/v_decimal UNKNOWN        : PHIF:PETROWORKS:rC:NONE:v1 
RHOB     .g/cm3       UNKNOWN        : RHOB:UNKNOWN:rC:NONE:v1 
SW       .v/v_decimal UNKNOWN        : SW:PETROWORKS:rC:NONE:v1 
VSH      .v/v_decimal UNKNOWN        : VSH:PETROWORKS:rC:NONE:v1 
~A     DEPTH         TVD       TVDSS           DT          DTS           GR        KLOGH         NPHI         PHIF         RHOB           SW          VSH
# ...
   2802.1250   2778.1250  -2756.1250      89.3642     175.6132      93.6453     198.3435       0.2670       0.2480       2.2657       0.9343       0.2723
   2802.2500   2778.2500  -2756.2500      88.9502     175.1929      95.6143      99.4885       0.2618       0.2326       2.2900       0.9661       0.2925
   2802.3750   2778.3750  -2756.3750      88.3994     174.5392      95.0588      52.2137       0.2553       0.2183       2.3117       0.9927       0.3064
   2802.5000   2778.5000  -2756.5000      87.7951     173.7188      82.7018      30.3033       0.2495       0.2061       2.3270       1.0000       0.2808
   2802.6250   2778.6250  -2756.6250      87.2536     172.8228      93.5441      28.4786       0.2433       0.2047       2.3344       1.0000       0.3018
   2802.7500   2778.7500  -2756.7500      86.8855     171.9565      87.8423      26.5734       0.2307       0.2032       2.3350       1.0000       0.2671
   2802.8750   2778.8750  -2756.8750      86.6828     171.0926      87.3584      26.1490       0.2456       0.2028       2.3350       1.0000       0.3131
   2803.0000   2779.0000  -2757.0000      86.6316     170.1829      92.3254      27.0094       0.2527       0.2036       2.3362       1.0000       0.3334
   2803.1250   2779.1250  -2757.1250      86.6936     169.1804      98.4560      24.6886       0.2458       0.2016       2.3393       1.0000       0.3172
   2803.2500   2779.2500  -2757.2500      86.8063     168.0453      99.8238      21.4014       0.2625       0.1984       2.3441       1.0000       0.3755
   2803.3750   2779.3750  -2757.3750      86.8162     166.6313      94.2993      19.9635       0.2438       0.1968       2.3465       1.0000       0.3222
   2803.5000   2779.5000  -2757.5000      86.6162     164.9970      94.5303      20.5596       0.2491       0.1975       2.3443       1.0000       0.3367
   2803.6250   2779.6250  -2757.6250      86.2139     163.2128      97.1842      21.5778       0.2667       0.1986       2.3410       1.0000       0.3875
   2803.7500   2779.7500  -2757.7500      85.6506     161.3541      96.6399      18.4002       0.2708       0.1950       2.3443       1.0000       0.4079
   2803.8750   2779.8750  -2757.8750      84.9925     159.5234      91.2789      10.1670       0.2488       0.1818       2.3628       1.0000       0.3717
   2804.0000   2780.0000  -2758.0000      84.3254     157.9012      95.0959       3.5394       0.2477       0.1583       2.4054       1.0000       0.4215
   2804.1250   2780.1250  -2758.1250      83.7386     156.6879      96.8656       0.8502       0.2518       0.1265       2.4549       1.0000       0.4416
   2804.2500   2780.2500  -2758.2500      83.2276     155.8203     100.6824       0.2621       0.2632       0.1003       2.4938       1.0000       0.4850
   2804.3750   2780.3750  -2758.3750      82.8026     155.2463     102.6923       0.1295       0.2593       0.0846       2.5196       1.0000       0.5079
   2804.5000   2780.5000  -2758.5000      82.4924     154.9001     102.7311       0.0822       0.2632       0.0744       2.5352       1.0000       0.5083
   2804.6250   2780.6250  -2758.6250      82.3435     154.7103     104.2127       0.0596       0.3252       0.0673       2.5463       1.0000       0.5251
   2804.7500   2780.7500  -2758.7500      82.4467     154.6039     102.0473       0.0529       0.2804       0.0646       2.5504       1.0000       0.5005
   2804.8750   2780.8750  -2758.8750      82.7324     154.6015     107.3125       0.0731       0.3065       0.0718       2.5393       1.0000       0.5603
   2805.0000   2781.0000  -2759.0000      83.1030     154.7445     109.1563       0.1523       0.3052       0.0882       2.5141       1.0000       0.5813
   2805.1250   2781.1250  -2759.1250      83.4989     155.0594     109.3066       0.4173       0.2777       0.1106       2.4794       1.0000       0.5830
   2805.2500   2781.2500  -2759.2500      83.8744     155.5494     110.6741       1.1995       0.2567       0.1342       2.4431       1.0000       0.5088
   2805.3750   2781.3750  -2759.3750      84.1947     156.1876     109.7207       2.5751       0.2756       0.1512       2.4169       1.0000       0.5263
   2805.5000   2781.5000  -2759.5000      84.4039     156.7871     105.8972       3.8223       0.2973       0.1600       2.4033       1.0000       0.5443
   2805.6250   2781.6250  -2759.6250      84.4731     157.2494     106.0623       5.2149       0.2741       0.1669       2.3927       1.0000       0.4850
   2805.7500   2781.7500  -2759.7500      84.3815     157.6191     104.7695       5.3820       0.2675       0.1676       2.3906       1.0000       0.4631
   2805.8750   2781.8750  -2759.8750      84.1412     157.9724     102.1702       2.7905       0.2787       0.1530       2.4026       1.0000       0.5019
   2806.0000   2782.0000  -2760.0000      83.7989     158.3956     102.0022       1.0065       0.2652       0.1303       2.4319       1.0000       0.5000
   2806.1250   2782.1250  -2760.1250      83.4638     158.9592      98.4543       0.3310       0.2435       0.1055       2.4753       1.0000       0.4597
   2806.2500   2782.2498  -2760.2498      83.2111     159.5465     102.8029       0.1316       0.2586       0.0849       2.5117       1.0000       0.5091
   2806.3750   2782.3748  -2760.3748      83.0331     160.0134     109.2239       0.0725       0.2574       0.0716       2.5363       1.0000       0.5821
   2806.5000   2782.4998  -2760.4998      82.9283     160.3324     112.5091       0.0549       0.2696       0.0654       2.5474       1.0000       0.6194
   2806.6250   2782.6248  -2760.6248      82.8982     160.5520     114.6123       0.0568       0.2951       0.0662       2.5463       1.0000       0.6433
   2806.7500   2782.7498  -2760.7498      82.9510     160.8030     130.0450       0.0757       0.2487       0.0726       2.5380       1.0000       0.6300
   2806.8750   2782.8748  -2760.8748      83.1252     161.2459     133.1047       0.0961       0.3112       0.0779       2.5299       1.0000       0.8073
   2807.0000   2782.9998  -2760.9998      83.3643     161.8522     140.5749       0.1371       0.3108       0.0858       2.5166       1.0000       0.7873
   2807.1250   2783.1248  -2761.1248      83.6128     162.5235     138.2546       0.2016       0.2870       0.0944       2.4982       1.0000       0.6938
   2807.2500   2783.2498  -2761.2498      83.8203     163.1273     129.3683       0.3368       0.2672       0.1059       2.4771       1.0000       0.6059
   2807.3750   2783.3748  -2761.3748      83.9469     163.5286     125.1911       0.7466       0.2623       0.1236       2.4586       0.9447       0.5509
   2807.5000   2783.4998  -2761.4998      83.9633     163.6205     122.0092       0.7977       0.2538       0.1251       2.4553       0.9391       0.5211
   2807.6250   2783.6248  -2761.6248      83.8532     163.4292     125.3432       0.4012       0.2262       0.1098       2.4807       1.0000       0.4733
   2807.7500   2783.7498  -2761.7498      83.6256     163.0562     123.0599       0.1132       0.2305       0.0816       2.5239       1.0000       0.5527
   2807.8750   2783.8748  -2761.8748      83.2952     162.5298     117.8901       0.0300       0.2417       0.0520       2.5698       1.0000       0.6562
   2808.0000   2783.9998  -2761.9998      82.8882     161.8484     113.9419       0.0113       0.2430       0.0303       2.6034       1.0000       0.6357
   2808.1250   2784.1248  -2762.1248      82.4394     160.9790     113.6371       0.0086       0.2486       0.0241       2.6129       1.0000       0.6322
   2808.2500   2784.2498  -2762.2498      81.9996     159.8499     126.2107       0.0099       0.2677       0.0273       2.6080       1.0000       0.7750
   2808.3750   2784.3748  -2762.3748      81.6006     158.6690     131.3201       0.0128       0.2590       0.0330       2.5991       1.0000       0.7537
   2808.5000   2784.4998  -2762.4998      81.2603     157.5726     131.2377       0.0185       0.2613       0.0412       2.5864       1.0000       0.7413
