#------------------------------------------------------------------------------
#
#   Created by  : [OpenWorks] Log Export Utility (LEXP)
#   Created on  : 2007-05-07 11:57:07
#   Project     : NORNE
#   User        : JSE
#   Interpreter : JSE
#
#------------------------------------------------------------------------------
~VERSION INFORMATION
VERS. 2.0 : CWLS Log ASCII Standard - version 2.0
WRAP.  NO : One line per depth step
~WELL INFORMATION
#MNEMONIC   .UNIT                                           VALUE :DESCRIPTION
#------------------------------------------------------------------------------
STRT        .M                                          1268.1250 :START DEPTH
STOP        .M                                          2919.8750 :STOP DEPTH
STEP        .M                                             0.1250 :STEP
NULL        .                                           -999.2500 :NULL VALUE
COMP        .                                             STATOIL :COMPANY
WELL        .                                       6608/10-B-4 H :WELL
FLD         .                                               NORNE :FIELD
LOC         .                                             UNKNOWN :LOCATION
CNTY        .                                             UNKNOWN :COUNTY
STAT        .                                             UNKNOWN :STATE
CTRY        .                                              Norway :COUNTRY
SRVC        .                                             UNKNOWN :SERVICE COMPANY
DATE        .                                             UNKNOWN :LOG DATE
UWI         .                                    NO 6608/10-B-4 H :UNIQUE WELL ID
XCOORD      .                                       457114.155174 :SURFACE X
YCOORD      .                                      7322136.377523 :SURFACE Y
LAT         .                                           66.015409 :LATITUDE
LON         .                                            8.054547 :LONGITUDE
ELEV        .M                                            22.0000 :SURFACE ELEV
ELEV_TYPE   .                                                  KB :ELEV TYPE
~CURVE INFORMATION
#MNEMONIC.UNIT        API CODE       : CURVE DESCRIPTION
#------------------------------------------------------------------------------
DEPTH    .M                          : Measured Depth
TVD      .M                          : True Vertical Depth (TVD)
TVDSS    .M                          : True Vertical Depth (TVDSS)
DT       .us/ft                      : DT:UNKNOWN:rC:NONE:v1 
DTS      .us/ft                      : DTS:UNKNOWN:rC:NONE:v1 
GR       .API         UNKNOWN        : GR:GR:rC::v0 (auto-composite)
KLOGH    .mD          UNKNOWN        : KLOGH:PETROWORKS:rC:NONE:v1 
NPHI     .v/v_decimal                : NPHI:UNKNOWN:rC:NONE:v1 
PHIF     .v/v_decimal UNKNOWN        : PHIF:PETROWORKS:rC:NONE:v1 
RHOB     .g/cm3       UNKNOWN        : RHOB:UNKNOWN:rC:NONE:v1 
SW       .v/v_decimal UNKNOWN        : SW:PETROWORKS:rC:NONE:v1 
VSH      .v/v_decimal UNKNOWN        : VSH:PETROWORKS:rC:NONE:v1 
~A     DEPTH         TVD       TVDSS           DT          DTS           GR        KLOGH         NPHI         PHIF         RHOB           SW          VSH
# ...
   2548.6250   2524.6287  -2502.6287     102.4712     208.3726     125.7713    -999.2500       0.4221    -999.2500       2.4010    -999.2500    -999.2500
   2548.7500   2524.7537  -2502.7537     101.2200     205.9320     133.1619    -999.2500       0.4045    -999.2500       2.4005    -999.2500    -999.2500
   2548.8750   2524.8787  -2502.8787      99.2844     202.0813     123.5332    -999.2500       0.3270    -999.2500       2.3956    -999.2500    -999.2500
   2549.0000   2525.0037  -2503.0037      96.8851     197.2080     122.4986    -999.2500       0.3319    -999.2500       2.3972    -999.2500    -999.2500
   2549.1250   2525.1287  -2503.1287      94.2773     191.9214     118.9594    -999.2500       0.3307    -999.2500       2.4061    -999.2500    -999.2500
   2549.2500   2525.2537  -2503.2537      91.5867     186.6162     120.5769    -999.2500       0.3743    -999.2500       2.4184    -999.2500    -999.2500
   2549.3750   2525.3787  -2503.3787      88.9203     181.6008     125.9273    -999.2500       0.4390    -999.2500       2.4331    -999.2500    -999.2500
   2549.5000   2525.5037  -2503.5037      86.3800     177.0680     113.2370    -999.2500       0.3408    -999.2500       2.4560    -999.2500    -999.2500
   2549.6250   2525.6287  -2503.6287      84.2219     173.3068     118.6118    -999.2500       0.3929    -999.2500       2.5037    -999.2500    -999.2500
   2549.7500   2525.7537  -2503.7537      82.5539     170.3813     121.4543    -999.2500       0.3750    -999.2500       2.5571    -999.2500    -999.2500
   2549.8750   2525.8787  -2503.8787      81.4303     168.4007     116.8529    -999.2500       0.3457    -999.2500       2.6079    -999.2500    -999.2500
   2550.0000   2526.0034  -2504.0034      80.8842     167.4425     109.7256    -999.2500       0.3868    -999.2500       2.6447    -999.2500    -999.2500
   2550.1250   2526.1284  -2504.1284      80.9283     167.5384     106.5099    -999.2500       0.5061    -999.2500       2.6569    -999.2500    -999.2500
   2550.2500   2526.2534  -2504.2534      81.6430     168.7815      95.2139    -999.2500       0.3252    -999.2500       2.6405    -999.2500    -999.2500
   2550.3750   2526.3784  -2504.3784      83.0024     171.1793     103.4852    -999.2500       0.3284    -999.2500       2.6100    -999.2500    -999.2500
   2550.5000   2526.5034  -2504.5034      84.7071     174.3211     104.5185    -999.2500       0.2958    -999.2500       2.5780    -999.2500    -999.2500
   2550.6250   2526.6284  -2504.6284      86.5083     177.8344     105.4847    -999.2500       0.2878    -999.2500       2.5495    -999.2500    -999.2500
   2550.7500   2526.7534  -2504.7534      88.1810     181.3205     109.1512    -999.2500       0.3592    -999.2500       2.5304    -999.2500    -999.2500
   2550.8750   2526.8784  -2504.8784      89.5539     184.3941     107.5837    -999.2500       0.4953    -999.2500       2.5286    -999.2500    -999.2500
   2551.0000   2527.0034  -2505.0034      90.4712     186.5152     127.0955    -999.2500       0.4694    -999.2500       2.5508    -999.2500    -999.2500
   2551.1250   2527.1284  -2505.1284      91.0261     187.8800     122.6024    -999.2500       0.4311    -999.2500       2.5676    -999.2500    -999.2500
   2551.2500   2527.2534  -2505.2534      91.2180     188.5850     116.0025    -999.2500       0.4910    -999.2500       2.5701    -999.2500    -999.2500
   2551.3750   2527.3784  -2505.3784      90.9977     188.6353     115.4623    -999.2500       0.5167    -999.2500       2.5553    -999.2500    -999.2500
   2551.5000   2527.5034  -2505.5034      90.3218     187.9720     120.4290    -999.2500       0.4087    -999.2500       2.5260    -999.2500    -999.2500
   2551.6250   2527.6284  -2505.6284      89.1714     186.3441     122.0232    -999.2500       0.5246    -999.2500       2.4932    -999.2500    -999.2500
   2551.7500   2527.7534  -2505.7534      87.6579     183.6690     130.7472    -999.2500       0.4489    -999.2500       2.4718    -999.2500    -999.2500
   2551.8750   2527.8784  -2505.8784      85.9755     180.5617     126.2474    -999.2500       0.3760    -999.2500       2.4637    -999.2500    -999.2500
   2552.0000   2528.0034  -2506.0034      84.2541     177.4126     120.7565    -999.2500       0.3921    -999.2500       2.4766    -999.2500    -999.2500
   2552.1250   2528.1284  -2506.1284      82.6338     174.5405     122.0893    -999.2500       0.4971    -999.2500       2.5159    -999.2500    -999.2500
   2552.2500   2528.2534  -2506.2534      81.2635     172.1715     127.3700    -999.2500       0.6033    -999.2500       2.5803    -999.2500    -999.2500
   2552.3750   2528.3784  -2506.3784      80.4241     170.5387     100.9164    -999.2500       0.4909    -999.2500       2.6377    -999.2500    -999.2500
   2552.5000   2528.5034  -2506.5034      80.1746     169.7790      94.0100    -999.2500       0.4116    -999.2500       2.6360    -999.2500    -999.2500
   2552.6250   2528.6284  -2506.6284      80.4080     169.9187      97.7254    -999.2500       0.3717    -999.2500       2.5793    -999.2500    -999.2500
   2552.7500   2528.7534  -2506.7534      80.9907     170.8494     104.0759    -999.2500       0.3359    -999.2500       2.4947    -999.2500    -999.2500
   2552.8750   2528.8784  -2506.8784      81.7850     172.3425     107.8152    -999.2500       0.2975    -999.2500       2.4213    -999.2500    -999.2500
   2553.0000   2529.0034  -2507.0034      82.7031     174.0484     110.3981    -999.2500       0.3564    -999.2500       2.4066    -999.2500    -999.2500
   2553.1250   2529.1284  -2507.1284      83.7214     175.8394     110.2869    -999.2500       0.5574    -999.2500       2.4423    -999.2500    -999.2500
   2553.2500   2529.2534  -2507.2534      84.7572     177.9852     114.4819    -999.2500       0.6336    -999.2500       2.4636    -999.2500    -999.2500
   2553.3750   2529.3784  -2507.3784      85.7693     180.5295     118.6912    -999.2500       0.5189    -999.2500       2.4560    -999.2500    -999.2500
   2553.5000   2529.5034  -2507.5034      86.7526     183.3762     122.8655    -999.2500       0.3455    -999.2500       2.4268    -999.2500    -999.2500
   2553.6250   2529.6284  -2507.6284      87.7473     186.3226     129.0584    -999.2500       0.3463    -999.2500       2.3996    -999.2500    -999.2500
   2553.7500   2529.7534  -2507.7534      88.9411     189.0804     123.9900    -999.2500       0.4123    -999.2500       2.4061    -999.2500    -999.2500
   2553.8750   2529.8784  -2507.8784      90.5446     191.6067     116.2680    -999.2500       0.3997    -999.2500       2.4318    -999.2500    -999.2500
   2554.0000   2530.0034  -2508.0034      92.4935     193.9174     113.9049    -999.2500       0.3744    -999.2500       2.4521    -999.2500    -999.2500
   2554.1250   2530.1284  -2508.1284      94.6411     195.9353     118.7839    -999.2500       0.4137    -999.2500       2.4558    -999.2500    -999.2500
   2554.2500   2530.2534  -2508.2534      96.7939     197.5704     126.5411    -999.2500       0.4924    -999.2500       2.4412    -999.2500    -999.2500
   2554.3750   2530.3784  -2508.3784      98.7580     198.7600     124.4790    -999.2500       0.3891    -999.2500       2.4180    -999.2500    -999.2500
   2554.5000   2530.5034  -2508.5034     100.2330     199.5239     127.6756    -999.2500       0.4314    -999.2500       2.4066    -999.2500    -999.2500
   2554.6250   2530.6284  -2508.6284     101.3612     200.2536     134.1832    -999.2500       0.7571    -999.2500       2.4084    -999.2500    -999.2500
   2554.7500   2530.7534  -2508.7534     102.0957     200.9895     133.2465    -999.2500       0.6852    -999.2500       2.4209    -999.2500    -999.2500
   2554.8750   2530.8784  -2508.8784     102.3971     201.7308     125.9120    -999.2500       0.3702    -999.2500       2.4371    -999.2500    -999.2500
   2555.0000   2531.0034  -2509.0034     102.2309     202.4633     119.7020    -999.2500       0.3653    -999.2500       2.4481    -999.2500    -999.2500
