#------------------------------------------------------------------------------
#
#   Created by  : [OpenWorks] Log Export Utility (LEXP)
#   Created on  : 2007-05-07 11:57:07
#   Project     : NORNE
#   User        : JSE
#   Interpreter : JSE
#
#------------------------------------------------------------------------------
~VERSION INFORMATION
VERS. 2.0 : CWLS Log ASCII Standard - version 2.0
WRAP.  NO : One line per depth step
~WELL INFORMATION
#MNEMONIC   .UNIT                                           VALUE :DESCRIPTION
#------------------------------------------------------------------------------
STRT        .M                                          1268.1250 :START DEPTH
STOP        .M                                          2919.8750 :STOP DEPTH
STEP        .M                                             0.1250 :STEP
NULL        .                                           -999.2500 :NULL VALUE
COMP        .                                             STATOIL :COMPANY
WELL        .                                       6608/10-B-4 H :WELL
FLD         .                                               NORNE :FIELD
LOC         .                                             UNKNOWN :LOCATION
CNTY        .                                             UNKNOWN :COUNTY
STAT        .                                             UNKNOWN :STATE
CTRY        .                                              Norway :COUNTRY
SRVC        .                                             UNKNOWN :SERVICE COMPANY
DATE        .                                             UNKNOWN :LOG DATE
UWI         .                                    NO 6608/10-B-4 H :UNIQUE WELL ID
XCOORD      .                                       457114.155174 :SURFACE X
YCOORD      .                                      7322136.377523 :SURFACE Y
LAT         .                                           66.015409 :LATITUDE
LON         .                                            8.054547 :LONGITUDE
ELEV        .M                                            22.0000 :SURFACE ELEV
ELEV_TYPE   .                                                  KB :ELEV TYPE
~CURVE INFORMATION
#MNEMONIC.UNIT        API CODE       : CURVE DESCRIPTION
#------------------------------------------------------------------------------
DEPTH    .M                          : Measured Depth
TVD      .M                          : True Vertical Depth (TVD)
TVDSS    .M                          : True Vertical Depth (TVDSS)
DT       .us/ft                      : DT:UNKNOWN:rC:NONE:v1 
DTS      .us/ft                      : DTS:UNKNOWN:rC:NONE:v1 
GR       .API         UNKNOWN        : GR:GR:rC::v0 (auto-composite)
KLOGH    .mD          UNKNOWN        : KLOGH:PETROWORKS:rC:NONE:v1 
NPHI     .v/v_decimal                : NPHI:UNKNOWN:rC:NONE:v1 
PHIF     .v/v_decimal UNKNOWN        : PHIF:PETROWORKS:rC:NONE:v1 
RHOB     .g/cm3       UNKNOWN        : RHOB:UNKNOWN:rC:NONE:v1 
SW       .v/v_decimal UNKNOWN        : SW:PETROWORKS:rC:NONE:v1 
VSH      .v/v_decimal UNKNOWN        : VSH:PETROWORKS:rC:NONE:v1 
~A     DEPTH         TVD       TVDSS           DT          DTS           GR        KLOGH         NPHI         PHIF         RHOB           SW          VSH
# ...
   2685.1250   2661.1255  -2639.1255      92.7945     165.7343      73.2389    1278.9020       0.2100       0.2982       2.1631       0.1861       0.0010
   2685.2500   2661.2505  -2639.2505      92.7603     165.5988      73.2151    1331.4410       0.2533       0.2989       2.1593       0.1962       0.0956
   2685.3750   2661.3755  -2639.3755      92.7335     165.5107      70.4709    1298.6283       0.2598       0.2985       2.1563       0.2062       0.1156
   2685.5000   2661.5005  -2639.5005      92.7101     165.4762      67.9591    1285.8956       0.2425       0.2983       2.1566       0.2126       0.0640
   2685.6250   2661.6255  -2639.6255      92.6829     165.4865      66.9919    1278.8445       0.2279       0.2982       2.1607       0.2135       0.0211
   2685.7500   2661.7505  -2639.7505      92.6427     165.5188      66.9783    1081.7793       0.2369       0.2953       2.1671       0.2085       0.0554
   2685.8750   2661.8755  -2639.8755      92.5820     165.5410      63.6848     851.3658       0.2469       0.2912       2.1687       0.2141       0.0646
   2686.0000   2662.0005  -2640.0005      92.5065     165.5463      73.1011     982.4318       0.2236       0.2937       2.1683       0.2121       0.0190
   2686.1250   2662.1255  -2640.1255      92.4287     165.5386      69.5947    1052.9807       0.2157       0.2949       2.1700       0.2191       0.0010
   2686.2500   2662.2505  -2640.2505      92.3613     165.5188      64.4484     802.3619       0.2259       0.2902       2.1761       0.2311       0.0348
   2686.3750   2662.3755  -2640.3755      92.3169     165.4866      72.2171     506.6078       0.2338       0.2822       2.1874       0.2441       0.0772
   2686.5000   2662.5005  -2640.5005      92.3104     165.4407      72.3902     411.0792       0.2055       0.2786       2.2021       0.2477       0.0016
   2686.6250   2662.6255  -2640.6255      92.3563     165.3994      71.3243     261.8526       0.2195       0.2708       2.2123       0.2522       0.0620
   2686.7500   2662.7505  -2640.7505      92.4412     165.3732      67.4355     243.3979       0.2325       0.2695       2.2138       0.2540       0.1043
   2686.8750   2662.8755  -2640.8755      92.5527     165.3688      69.6601     306.7068       0.2370       0.2735       2.2072       0.2409       0.1083
   2687.0000   2663.0005  -2641.0005      92.6717     165.3942      76.2346     441.5612       0.2328       0.2798       2.1953       0.2224       0.0807
   2687.1250   2663.1255  -2641.1255      92.7727     165.4575      75.9461     596.8610       0.2244       0.2850       2.1824       0.2145       0.0423
   2687.2500   2663.2505  -2641.2505      92.8145     165.5584      74.5766     836.1251       0.2113       0.2909       2.1725       0.2117       0.0010
   2687.3750   2663.3755  -2641.3755      92.7863     165.6712      69.7620    1108.1635       0.2345       0.2958       2.1682       0.2038       0.0479
   2687.5000   2663.5005  -2641.5005      92.7031     165.7762      70.2037    1224.6641       0.2472       0.2975       2.1685       0.2027       0.0824
   2687.6250   2663.6255  -2641.6255      92.5822     165.8591      72.4064    1124.6621       0.2430       0.2960       2.1720       0.2037       0.0733
   2687.7500   2663.7505  -2641.7505      92.4436     165.9105      72.7927     936.6147       0.2302       0.2928       2.1760       0.2032       0.0422
   2687.8750   2663.8755  -2641.8755      92.3082     165.9294      76.1691     735.2710       0.2218       0.2886       2.1760       0.2038       0.0260
   2688.0000   2664.0005  -2642.0005      92.2118     165.9292      69.6742     932.3894       0.2494       0.2928       2.1744       0.2043       0.1000
   2688.1250   2664.1255  -2642.1255      92.1677     165.9315      70.2917    1021.3618       0.2459       0.2943       2.1734       0.2047       0.0859
   2688.2500   2664.2505  -2642.2505      92.1820     165.9517      70.8698    1067.6609       0.2434       0.2951       2.1726       0.2051       0.0766
   2688.3750   2664.3755  -2642.3755      92.2489     166.0007      68.4832    1113.8345       0.2504       0.2958       2.1712       0.2049       0.0958
   2688.5000   2664.5005  -2642.5005      92.3527     166.0831      65.4650    1105.9246       0.2545       0.2957       2.1688       0.2032       0.0848
   2688.6250   2664.6255  -2642.6255      92.4692     166.1930      72.3020    1036.7650       0.2505       0.2946       2.1663       0.1984       0.0982
   2688.7500   2664.7505  -2642.7505      92.5692     166.2672      70.8720    1090.6177       0.2406       0.2955       2.1660       0.1971       0.0665
   2688.8750   2664.8755  -2642.8755      92.6341     166.3248      72.3231    1046.7285       0.2639       0.2948       2.1692       0.1991       0.1386
   2689.0000   2665.0005  -2643.0005      92.6553     166.3900      72.6257     913.8773       0.2691       0.2924       2.1749       0.2026       0.1602
   2689.1250   2665.1255  -2643.1255      92.6305     166.4742      69.2818     784.7960       0.2439       0.2898       2.1805       0.2059       0.0909
   2689.2500   2665.2505  -2643.2505      92.5630     166.5640      68.2410     776.9896       0.2787       0.2896       2.1830       0.2087       0.1164
   2689.3750   2665.3755  -2643.3755      92.4633     166.6866      72.2391     809.6219       0.2672       0.2903       2.1830       0.2029       0.1601
   2689.5000   2665.5005  -2643.5005      92.3600     166.8875      73.7369     854.7141       0.2886       0.2913       2.1804       0.2020       0.1788
   2689.6250   2665.6255  -2643.6255      92.2650     167.1910      72.7340     953.9509       0.2773       0.2932       2.1763       0.2009       0.1674
   2689.7500   2665.7505  -2643.7505      92.1859     167.5729      70.7056    1123.6179       0.2498       0.2960       2.1711       0.2015       0.0937
   2689.8750   2665.8755  -2643.8755      92.1285     167.9700      70.3385    1212.2253       0.2528       0.2973       2.1661       0.2003       0.0993
   2690.0000   2666.0005  -2644.0005      92.1071     168.2637      76.6266    1102.5443       0.2371       0.2957       2.1669       0.2004       0.0560
   2690.1250   2666.1255  -2644.1255      92.1309     168.3041      72.9333     829.9112       0.2648       0.2907       2.1751       0.2184       0.1510
   2690.2500   2666.2505  -2644.2505      92.1841     168.1260      71.7639     626.1227       0.2689       0.2859       2.1847       0.2339       0.1564
   2690.3750   2666.3755  -2644.3755      92.2568     167.7868      69.7584     517.1844       0.2424       0.2826       2.1926       0.2452       0.1032
   2690.5000   2666.5005  -2644.5005      92.3389     167.3358      66.9078     495.3808       0.2091       0.2818       2.1962       0.2514       0.0052
   2690.6250   2666.6255  -2644.6255      92.4205     166.7980      70.5066     513.9990       0.2180       0.2824       2.1928       0.2385       0.0301
   2690.7500   2666.7505  -2644.7505      92.4845     166.2433      73.0494     555.8394       0.2369       0.2838       2.1863       0.2384       0.0833
   2690.8750   2666.8755  -2644.8755      92.5294     165.7943      71.9528     627.3738       0.2501       0.2859       2.1830       0.2415       0.1179
   2691.0000   2667.0002  -2645.0002      92.5599     165.5129      73.0368     628.5631       0.2594       0.2859       2.1825       0.2389       0.1459
   2691.1250   2667.1252  -2645.1252      92.5807     165.4067      70.7871     621.0637       0.2456       0.2857       2.1830       0.2337       0.1049
   2691.2500   2667.2502  -2645.2502      92.5960     165.4474      61.8083     699.1052       0.2064       0.2878       2.1828       0.2325       0.0010
   2691.3750   2667.3752  -2645.3752      92.6100     165.5869      68.5946     654.0477       0.2350       0.2866       2.1811       0.2281       0.0708
   2691.5000   2667.5002  -2645.5002      92.6224     165.8353      70.7323     717.5751       0.2336       0.2882       2.1780       0.2288       0.0626
