#------------------------------------------------------------------------------
#
#   Created by  : [OpenWorks] Log Export Utility (LEXP)
#   Created on  : 2007-05-07 11:57:07
#   Project     : NORNE
#   User        : JSE
#   Interpreter : JSE
#
#------------------------------------------------------------------------------
~VERSION INFORMATION
VERS. 2.0 : CWLS Log ASCII Standard - version 2.0
WRAP.  NO : One line per depth step
~WELL INFORMATION
#MNEMONIC   .UNIT                                           VALUE :DESCRIPTION
#------------------------------------------------------------------------------
STRT        .M                                          1268.1250 :START DEPTH
STOP        .M                                          2919.8750 :STOP DEPTH
STEP        .M                                             0.1250 :STEP
NULL        .                                           -999.2500 :NULL VALUE
COMP        .                                             STATOIL :COMPANY
WELL        .                                       6608/10-B-4 H :WELL
FLD         .                                               NORNE :FIELD
LOC         .                                             UNKNOWN :LOCATION
CNTY        .                                             UNKNOWN :COUNTY
STAT        .                                             UNKNOWN :STATE
CTRY        .                                              Norway :COUNTRY
SRVC        .                                             UNKNOWN :SERVICE COMPANY
DATE        .                                             UNKNOWN :LOG DATE
UWI         .                                    NO 6608/10-B-4 H :UNIQUE WELL ID
XCOORD      .                                       457114.155174 :SURFACE X
YCOORD      .                                      7322136.377523 :SURFACE Y
LAT         .                                           66.015409 :LATITUDE
LON         .                                            8.054547 :LONGITUDE
ELEV        .M                                            22.0000 :SURFACE ELEV
ELEV_TYPE   .                                                  KB :ELEV TYPE
~CURVE INFORMATION
#MNEMONIC.UNIT        API CODE       : CURVE DESCRIPTION
#------------------------------------------------------------------------------
DEPTH    .M                          : Measured Depth
TVD      .M                          : True Vertical Depth (TVD)
TVDSS    .M                          : True Vertical Depth (TVDSS)
DT       .us/ft                      : DT:UNKNOWN:rC:NONE:v1 
DTS      .us/ft                      : DTS:UNKNOWN:rC:NONE:v1 
GR       .API         UNKNOWN        : GR:GR:rC::v0 (auto-composite)
KLOGH    .mD          UNKNOWN        : KLOGH:PETROWORKS:rC:NONE:v1 
NPHI     .v/v_decimal                : NPHI:UNKNOWN:rC:NONE:v1 
PHIF     .v/v_decimal UNKNOWN        : PHIF:PETROWORKS:rC:NONE:v1 
RHOB     .g/cm3       UNKNOWN        : RHOB:UNKNOWN:rC:NONE:v1 
SW       .v/v_decimal UNKNOWN        : SW:PETROWORKS:rC:NONE:v1 
VSH      .v/v_decimal UNKNOWN        : VSH:PETROWORKS:rC:NONE:v1 
~A     DEPTH         TVD       TVDSS           DT          DTS           GR        KLOGH         NPHI         PHIF         RHOB           SW          VSH
# ...
   2620.1250   2596.1262  -2574.1262     100.1868     166.4065      71.5255     718.3757       0.1753       0.2939       2.1741       0.2510       0.0010
   2620.2500   2596.2512  -2574.2512     100.3271     166.3253      68.8319     730.9297       0.1697       0.2942       2.1666       0.2533       0.0010
   2620.3750   2596.3762  -2574.3762     100.4214     166.2091      74.3708     800.7237       0.1906       0.2961       2.1551       0.2579       0.0010
   2620.5000   2596.5012  -2574.5012     100.4543     166.0753      78.6609    1152.8038       0.1731       0.3034       2.1428       0.2429       0.0010
   2620.6250   2596.6262  -2574.6262     100.4583     165.9367      74.7101    1336.2424       0.1535       0.3063       2.1347       0.2195       0.0010
   2620.7500   2596.7512  -2574.7512     100.4648     165.7780      74.8823    1654.5654       0.1494       0.3106       2.1315       0.2046       0.0010
   2620.8750   2596.8762  -2574.8762     100.4870     165.6142      74.2388    1985.7312       0.1523       0.3142       2.1331       0.1945       0.0010
   2621.0000   2597.0012  -2575.0012     100.5285     165.5049      70.0774    1759.8341       0.1521       0.3118       2.1386       0.1900       0.0010
   2621.1250   2597.1262  -2575.1262     100.5819     165.5853      73.9543    1343.1041       0.1504       0.3064       2.1468       0.1954       0.0010
   2621.2500   2597.2512  -2575.2512     100.6480     166.1057      71.5818    1169.2595       0.1608       0.3036       2.1534       0.2118       0.0010
   2621.3750   2597.3762  -2575.3762     100.7282     166.9942      73.7736    1133.9808       0.1651       0.3030       2.1556       0.2237       0.0010
   2621.5000   2597.5012  -2575.5012     100.8193     168.1166      74.4252    1191.9890       0.1650       0.3040       2.1538       0.2315       0.0010
   2621.6250   2597.6262  -2575.6262     100.9118     169.2904      74.9215    1282.7827       0.1663       0.3055       2.1489       0.2352       0.0010
   2621.7500   2597.7512  -2575.7512     100.9928     170.3143      80.0421    1370.3636       0.1733       0.3068       2.1422       0.2334       0.0010
   2621.8750   2597.8762  -2575.8762     101.0503     170.9666      81.3372    1599.9998       0.1642       0.3099       2.1349       0.2262       0.0010
   2622.0000   2598.0012  -2576.0012     101.0780     171.2002      77.6115    1863.6139       0.1464       0.3130       2.1326       0.2170       0.0010
   2622.1250   2598.1262  -2576.1262     101.0680     171.0451      74.7504    1638.5768       0.1561       0.3104       2.1369       0.2226       0.0010
   2622.2500   2598.2512  -2576.2512     100.9850     170.5049      75.1207    1165.8944       0.1792       0.3036       2.1475       0.2398       0.0010
   2622.3750   2598.3762  -2576.3762     100.7759     169.6299      78.8147     775.6807       0.1943       0.2954       2.1625       0.2611       0.0010
   2622.5000   2598.5012  -2576.5012     100.3770     168.5450      83.3810     552.3525       0.1860       0.2886       2.1780       0.2744       0.0010
   2622.6250   2598.6262  -2576.6262      99.6837     167.4919      79.9336     357.2628       0.1778       0.2799       2.1887       0.2885       0.0010
   2622.7500   2598.7512  -2576.7512      98.8677     166.6571      79.9874     240.3868       0.2170       0.2720       2.1988       0.2967       0.0450
   2622.8750   2598.8762  -2576.8762      98.0440     166.0672      80.9584     154.2508       0.2344       0.2631       2.2123       0.3034       0.1179
   2623.0000   2599.0012  -2577.0012      97.3046     165.7115      81.9314      89.5739       0.2227       0.2522       2.2310       0.3099       0.1090
   2623.1250   2599.1262  -2577.1262      96.7142     165.5508      81.6128      47.3417       0.2085       0.2394       2.2533       0.3208       0.0972
   2623.2500   2599.2512  -2577.2512      96.3204     165.5565      72.4640      24.1949       0.2117       0.2260       2.2714       0.3426       0.1381
   2623.3750   2599.3762  -2577.3762      96.1312     165.6787      76.4917      24.7366       0.2105       0.2264       2.2737       0.3471       0.1339
   2623.5000   2599.5012  -2577.5012      96.1152     165.8219      79.5543      34.3071       0.2122       0.2330       2.2627       0.3511       0.1232
   2623.6250   2599.6262  -2577.6262      96.2450     165.9324      82.4072      57.3989       0.2150       0.2433       2.2447       0.3564       0.1072
   2623.7500   2599.7512  -2577.7512      96.4684     165.9784      83.3383     100.1467       0.2109       0.2544       2.2277       0.3602       0.0685
   2623.8750   2599.8762  -2577.8762      96.7089     165.9559      76.3446     144.0280       0.1875       0.2617       2.2192       0.3578       0.0010
   2624.0000   2600.0012  -2578.0012      96.8558     165.9222      79.5536     126.6968       0.1822       0.2591       2.2249       0.3672       0.0010
   2624.1250   2600.1262  -2578.1262      96.8890     165.8987      82.6330      74.5521       0.1977       0.2485       2.2347       0.3733       0.0427
   2624.2500   2600.2512  -2578.2512      96.8272     165.8306      80.9343      60.1803       0.1931       0.2442       2.2419       0.3670       0.0393
   2624.3750   2600.3762  -2578.3762      96.6799     165.6203      78.8052      67.1690       0.1810       0.2464       2.2416       0.3553       0.0010
   2624.5000   2600.5012  -2578.5012      96.4520     165.1395      80.5622      89.4683       0.1844       0.2522       2.2313       0.3384       0.0010
   2624.6250   2600.6262  -2578.6262      96.1320     164.1894      78.3813     141.4761       0.1883       0.2614       2.2141       0.3076       0.0010
   2624.7500   2600.7512  -2578.7512      95.7151     162.6062      76.0735     242.8572       0.1795       0.2722       2.2030       0.2719       0.0010
   2624.8750   2600.8762  -2578.8762      95.2574     160.7253      72.7239     248.4138       0.1871       0.2726       2.2071       0.2475       0.0010
   2625.0000   2601.0012  -2579.0012      94.8061     158.8262      71.1223     141.8086       0.2002       0.2614       2.2255       0.2347       0.0212
   2625.1250   2601.1262  -2579.1262      94.4054     157.1671      67.5282      57.1722       0.2023       0.2432       2.2535       0.2352       0.0705
   2625.2500   2601.2512  -2579.2512      94.0941     155.9614      55.1381      21.9694       0.1821       0.2241       2.2830       0.2475       0.0010
   2625.3750   2601.3762  -2579.3762      93.9308     155.4896      70.6154      13.4960       0.1983       0.2143       2.3003       0.2517       0.1272
   2625.5000   2601.5012  -2579.5012      93.9002     155.7108      66.8097      12.7196       0.2084       0.2131       2.2996       0.2694       0.1001
   2625.6250   2601.6262  -2579.6262      93.9780     156.5615      67.1044      19.9325       0.2094       0.2221       2.2837       0.2885       0.1034
   2625.7500   2601.7512  -2579.7512      94.1567     157.9387      69.1121      43.1529       0.2045       0.2376       2.2575       0.2983       0.0898
   2625.8750   2601.8762  -2579.8762      94.4263     159.6682      67.1828     101.2723       0.1947       0.2547       2.2272       0.2897       0.0197
   2626.0000   2602.0012  -2580.0012      94.7709     161.4996      67.1434     218.1297       0.1713       0.2700       2.2009       0.2824       0.0010
   2626.1250   2602.1262  -2580.1262      95.1703     163.0341      68.6588     417.9185       0.1735       0.2830       2.1818       0.2691       0.0010
   2626.2500   2602.2512  -2580.2512      95.5990     164.1866      66.6123     615.7679       0.1663       0.2908       2.1685       0.2579       0.0010
   2626.3750   2602.3762  -2580.3762      96.0609     164.9739      65.8721     789.2007       0.1707       0.2958       2.1591       0.2473       0.0010
   2626.5000   2602.5012  -2580.5012      96.5570     165.4392      65.6860     940.7460       0.1775       0.2993       2.1525       0.2384       0.0010
