#------------------------------------------------------------------------------
#
#   Created by  : [OpenWorks] Log Export Utility (LEXP)
#   Created on  : 2007-05-07 11:57:07
#   Project     : NORNE
#   User        : JSE
#   Interpreter : JSE
#
#------------------------------------------------------------------------------
~VERSION INFORMATION
VERS. 2.0 : CWLS Log ASCII Standard - version 2.0
WRAP.  NO : One line per depth step
~WELL INFORMATION
#MNEMONIC   .UNIT                                           VALUE :DESCRIPTION
#------------------------------------------------------------------------------
STRT        .M                                          1268.1250 :START DEPTH
STOP        .M                                          2919.8750 :STOP DEPTH
STEP        .M                                             0.1250 :STEP
NULL        .                                           -999.2500 :NULL VALUE
COMP        .                                             STATOIL :COMPANY
WELL        .                                       6608/10-B-4 H :WELL
FLD         .                                               NORNE :FIELD
LOC         .                                             UNKNOWN :LOCATION
CNTY        .                                             UNKNOWN :COUNTY
STAT        .                                             UNKNOWN :STATE
CTRY        .                                              Norway :COUNTRY
SRVC        .                                             UNKNOWN :SERVICE COMPANY
DATE        .                                             UNKNOWN :LOG DATE
UWI         .                                    NO 6608/10-B-4 H :UNIQUE WELL ID
XCOORD      .                                       457114.155174 :SURFACE X
YCOORD      .                                      7322136.377523 :SURFACE Y
LAT         .                                           66.015409 :LATITUDE
LON         .                                            8.054547 :LONGITUDE
ELEV        .M                                            22.0000 :SURFACE ELEV
ELEV_TYPE   .                                                  KB :ELEV TYPE
~CURVE INFORMATION
#MNEMONIC.UNIT        API CODE       : CURVE DESCRIPTION
#------------------------------------------------------------------------------
DEPTH    .M                          : Measured Depth
TVD      .M                          : True Vertical Depth (TVD)
TVDSS    .M                          : True Vertical Depth (TVDSS)
DT       .us/ft                      : DT:UNKNOWN:rC:NONE:v1 
DTS      .us/ft                      : DTS:UNKNOWN:rC:NONE:v1 
GR       .API         UNKNOWN        : GR:GR:rC::v0 (auto-composite)
KLOGH    .mD          UNKNOWN        : KLOGH:PETROWORKS:rC:NONE:v1 
NPHI     .v/v_decimal                : NPHI:UNKNOWN:rC:NONE:v1 
PHIF     .v/v_decimal UNKNOWN        : PHIF:PETROWORKS:rC:NONE:v1 
RHOB     .g/cm3       UNKNOWN        : RHOB:UNKNOWN:rC:NONE:v1 
SW       .v/v_decimal UNKNOWN        : SW:PETROWORKS:rC:NONE:v1 
VSH      .v/v_decimal UNKNOWN        : VSH:PETROWORKS:rC:NONE:v1 
~A     DEPTH         TVD       TVDSS           DT          DTS           GR        KLOGH         NPHI         PHIF         RHOB           SW          VSH
# ...
   2639.6250   2615.6260  -2593.6260      91.1367     165.2314      65.0131    1355.8226       0.2329       0.3001       2.1605       0.1163       0.0282
   2639.7500   2615.7510  -2593.7510      90.7887     164.4257      71.0684    1577.1772       0.2286       0.3050       2.1493       0.1215       0.0032
   2639.8750   2615.8760  -2593.8760      90.1698     162.8864      66.8299    2095.4480       0.2489       0.3142       2.1341       0.1310       0.0422
   2640.0000   2616.0010  -2594.0010      89.0786     160.0651      73.9380    1858.7034       0.2465       0.3103       2.1423       0.1519       0.0446
   2640.1250   2616.1260  -2594.1260      87.6677     156.1678      66.3693     853.7125       0.2302       0.2851       2.1878       0.1904       0.0559
   2640.2500   2616.2510  -2594.2510      86.1097     151.5685      69.1229     246.6786       0.2446       0.2450       2.2637       0.2392       0.1264
   2640.3750   2616.3760  -2594.3760      84.5741     146.7409      78.2670      52.9688       0.2607       0.1952       2.3500       0.2905       0.2303
   2640.5000   2616.5010  -2594.5010      83.2263     142.2230      79.6729      12.6558       0.2418       0.1489       2.4212       0.3423       0.2463
   2640.6250   2616.6260  -2594.6260      82.2614     138.6817      74.7227       6.9856       0.2645       0.1297       2.4507       0.3165       0.1900
   2640.7500   2616.7507  -2594.7507      81.8952     136.7987      59.3924       8.2250       0.2013       0.1350       2.4251       0.2144       0.0159
   2640.8750   2616.8757  -2594.8757      82.1266     136.6577      52.1396      19.1221       0.1654       0.1623       2.3688       0.1477       0.0010
   2641.0000   2617.0007  -2595.0007      82.9501     138.2870      52.3027      64.1770       0.1695       0.2014       2.2984       0.1108       0.0010
   2641.1250   2617.1257  -2595.1257      84.2826     141.4976      55.6141     276.0784       0.2156       0.2486       2.2278       0.0919       0.0010
   2641.2500   2617.2507  -2595.2507      85.9638     145.8849      56.8151     812.8485       0.2975       0.2835       2.1673       0.0902       0.0010
   2641.3750   2617.3757  -2595.3757      87.6947     150.6903      55.8830    1437.6277       0.2555       0.3020       2.1296       0.0900       0.0010
   2641.5000   2617.5007  -2595.5007      89.2014     155.0496      56.9561    2149.1328       0.2650       0.3150       2.1088       0.0884       0.0010
   2641.6250   2617.6257  -2595.6257      90.4144     158.7331      59.2483    2766.2104       0.2660       0.3231       2.1005       0.0866       0.0142
   2641.7500   2617.7507  -2595.7507      91.3091     161.6348      60.7235    2867.1892       0.2635       0.3243       2.1015       0.0870       0.0309
   2641.8750   2617.8757  -2595.8757      91.8956     163.7270      59.3257    2269.9082       0.2755       0.3168       2.1089       0.0906       0.0150
   2642.0000   2618.0007  -2596.0007      92.1971     164.9771      54.1622    1780.7734       0.2874       0.3089       2.1204       0.0936       0.0010
   2642.1250   2618.1257  -2596.1257      92.2783     165.3718      63.1948    1835.8193       0.2659       0.3099       2.1311       0.0945       0.0590
   2642.2500   2618.2507  -2596.2507      92.2540     165.3572      63.4919    2080.3572       0.2419       0.3139       2.1358       0.0944       0.0220
   2642.3750   2618.3757  -2596.3757      92.1777     165.2367      59.5530    2232.5337       0.2226       0.3162       2.1370       0.0949       0.0010
   2642.5000   2618.5007  -2596.5007      92.0941     165.2758      57.6684    2252.0618       0.2131       0.3165       2.1377       0.0948       0.0010
   2642.6250   2618.6257  -2596.6257      92.0365     165.6666      61.5785    2220.9597       0.2169       0.3160       2.1402       0.0942       0.0010
   2642.7500   2618.7507  -2596.7507      92.0291     166.4498      53.6006    2099.9138       0.2383       0.3142       2.1435       0.0952       0.0010
   2642.8750   2618.8757  -2596.8757      92.0762     167.2955      58.4176    2014.6781       0.2484       0.3129       2.1468       0.1040       0.0047
   2643.0000   2619.0007  -2597.0007      92.1827     168.0706      62.6316    1906.5090       0.2621       0.3111       2.1511       0.1184       0.0526
   2643.1250   2619.1257  -2597.1257      92.3548     168.7263      62.4522    1812.9861       0.2586       0.3095       2.1540       0.1381       0.0506
   2643.2500   2619.2507  -2597.2507      92.5944     169.2501      60.4190    1861.2214       0.2332       0.3103       2.1514       0.1599       0.0061
   2643.3750   2619.3757  -2597.3757      92.8983     169.6499      66.9724    2405.6106       0.2358       0.3186       2.1383       0.1783       0.0010
   2643.5000   2619.5007  -2597.5007      93.2363     169.7584      71.1260    3297.0374       0.2514       0.3288       2.1148       0.1704       0.0157
   2643.6250   2619.6257  -2597.6257      93.5423     169.5300      70.2568    2983.5159       0.2706       0.3256       2.0929       0.1568       0.0777
   2643.7500   2619.7507  -2597.7507      93.7984     169.0762      62.8228    3505.7771       0.2657       0.3308       2.0799       0.1180       0.0500
   2643.8750   2619.8757  -2597.8757      94.0087     168.5627      56.9168    3998.2883       0.2389       0.3351       2.0784       0.0888       0.0010
   2644.0000   2620.0007  -2598.0007      94.1965     168.1627      63.2196    3712.3586       0.2142       0.3327       2.0859       0.0736       0.0010
   2644.1250   2620.1257  -2598.1257      94.4164     167.9649      67.2713    3785.8997       0.2121       0.3333       2.0949       0.0767       0.0010
   2644.2500   2620.2507  -2598.2507      94.7358     167.7823      64.9022    3933.6606       0.2159       0.3345       2.0989       0.0785       0.0010
   2644.3750   2620.3757  -2598.3757      95.1821     167.4805      65.5798    3945.5212       0.2354       0.3346       2.0995       0.0810       0.0010
   2644.5000   2620.5007  -2598.5007      95.7483     167.0796      67.2676    4128.6606       0.2517       0.3361       2.0986       0.0826       0.0010
   2644.6250   2620.6257  -2598.6257      96.4037     166.6764      66.3290    4616.6851       0.2560       0.3397       2.0982       0.0822       0.0039
   2644.7500   2620.7507  -2598.7507      97.0970     166.4270      60.6830    4484.4810       0.2663       0.3388       2.0990       0.0820       0.0305
   2644.8750   2620.8757  -2598.8757      97.7341     166.5150      58.1146    4126.9932       0.2585       0.3361       2.1048       0.0858       0.0013
   2645.0000   2621.0007  -2599.0007      98.2280     166.8367      59.2322    3605.9719       0.2523       0.3317       2.1118       0.0901       0.0119
   2645.1250   2621.1257  -2599.1257      98.5427     167.3528      60.0542    3389.9634       0.2441       0.3297       2.1178       0.0962       0.0010
   2645.2500   2621.2507  -2599.2507      98.6641     168.0307      61.1774    3185.1907       0.2347       0.3277       2.1221       0.1017       0.0010
   2645.3750   2621.3757  -2599.3757      98.6007     168.8431      64.1843    2808.3718       0.2315       0.3236       2.1255       0.1062       0.0010
   2645.5000   2621.5007  -2599.5007      98.3742     169.7802      63.1545    2769.0913       0.2617       0.3232       2.1296       0.1104       0.0586
   2645.6250   2621.6257  -2599.6257      98.0355     170.8146      60.5817    2297.9385       0.2611       0.3172       2.1382       0.1175       0.0293
   2645.7500   2621.7507  -2599.7507      97.6417     171.8326      63.3223    1930.9907       0.2610       0.3115       2.1483       0.1225       0.0605
   2645.8750   2621.8757  -2599.8757      97.2143     172.6704      66.5125    1682.9127       0.2520       0.3071       2.1575       0.1283       0.0705
   2646.0000   2622.0007  -2600.0007      96.7752     173.1582      67.4343    1493.0928       0.2376       0.3032       2.1630       0.1359       0.0364
