#------------------------------------------------------------------------------
#
#   Created by  : [OpenWorks] Log Export Utility (LEXP)
#   Created on  : 2007-05-07 11:57:07
#   Project     : NORNE
#   User        : JSE
#   Interpreter : JSE
#
#------------------------------------------------------------------------------
~VERSION INFORMATION
VERS. 2.0 : CWLS Log ASCII Standard - version 2.0
WRAP.  NO : One line per depth step
~WELL INFORMATION
#MNEMONIC   .UNIT                                           VALUE :DESCRIPTION
#------------------------------------------------------------------------------
STRT        .M                                          1268.1250 :START DEPTH
STOP        .M                                          2919.8750 :STOP DEPTH
STEP        .M                                             0.1250 :STEP
NULL        .                                           -999.2500 :NULL VALUE
COMP        .                                             STATOIL :COMPANY
WELL        .                                       6608/10-B-4 H :WELL
FLD         .                                               NORNE :FIELD
LOC         .                                             UNKNOWN :LOCATION
CNTY        .                                             UNKNOWN :COUNTY
STAT        .                                             UNKNOWN :STATE
CTRY        .                                              Norway :COUNTRY
SRVC        .                                             UNKNOWN :SERVICE COMPANY
DATE        .                                             UNKNOWN :LOG DATE
UWI         .                                    NO 6608/10-B-4 H :UNIQUE WELL ID
XCOORD      .                                       457114.155174 :SURFACE X
YCOORD      .                                      7322136.377523 :SURFACE Y
LAT         .                                           66.015409 :LATITUDE
LON         .                                            8.054547 :LONGITUDE
ELEV        .M                                            22.0000 :SURFACE ELEV
ELEV_TYPE   .                                                  KB :ELEV TYPE
~CURVE INFORMATION
#MNEMONIC.UNIT        API CODE       : CURVE DESCRIPTION
#------------------------------------------------------------------------------
DEPTH    .M                          : Measured Depth
TVD      .M                          : True Vertical Depth (TVD)
TVDSS    .M                          : True Vertical Depth (TVDSS)
DT       .us/ft                      : DT:UNKNOWN:rC:NONE:v1 
DTS      .us/ft                      : DTS:UNKNOWN:rC:NONE:v1 
GR       .API         UNKNOWN        : GR:GR:rC::v0 (auto-composite)
KLOGH    .mD          UNKNOWN        : KLOGH:PETROWORKS:rC:NONE:v1 
NPHI     .v/v_decimal                : NPHI:UNKNOWN:rC:NONE:v1 
PHIF     .v/v_decimal UNKNOWN        : PHIF:PETROWORKS:rC:NONE:v1 
RHOB     .g/cm3       UNKNOWN        : RHOB:UNKNOWN:rC:NONE:v1 
SW       .v/v_decimal UNKNOWN        : SW:PETROWORKS:rC:NONE:v1 
VSH      .v/v_decimal UNKNOWN        : VSH:PETROWORKS:rC:NONE:v1 
~A     DEPTH         TVD       TVDSS           DT          DTS           GR        KLOGH         NPHI         PHIF         RHOB           SW          VSH
# ...
   2711.1250   2687.1252  -2665.1252      90.8844     161.6502      66.5797      80.8422       0.2207       0.2280       2.3195       0.2828       0.0975
   2711.2500   2687.2502  -2665.2502      90.8240     163.5585      70.3249     163.4401       0.2526       0.2437       2.3017       0.2898       0.1401
   2711.3750   2687.3752  -2665.3752      90.9534     165.7091      74.6849     164.6181       0.2682       0.2438       2.2963       0.3188       0.1896
   2711.5000   2687.5002  -2665.5002      91.1780     167.6930      86.3690     125.0954       0.2499       0.2377       2.3070       0.3420       0.2335
   2711.6250   2687.6252  -2665.6252      91.3376     168.9085      82.4675     100.9612       0.2713       0.2329       2.3160       0.3598       0.2781
   2711.7500   2687.7502  -2665.7502      91.4108     169.4690      84.6077     101.9162       0.2491       0.2332       2.3123       0.3641       0.2411
   2711.8750   2687.8752  -2665.8752      91.4006     169.4390      84.8197     137.2532       0.2502       0.2398       2.3004       0.3635       0.2287
   2712.0000   2688.0002  -2666.0002      91.3176     168.9108      85.1496     202.1259       0.2629       0.2484       2.2870       0.3598       0.2467
   2712.1250   2688.1252  -2666.1252      91.1683     167.9857      90.3201     248.3216       0.2443       0.2530       2.2787       0.3572       0.1797
   2712.2500   2688.2502  -2666.2502      90.9107     166.7508      86.1478     273.1068       0.2495       0.2551       2.2763       0.3627       0.1904
   2712.3750   2688.3752  -2666.3752      90.5280     165.5123      90.6994     237.6562       0.2406       0.2520       2.2789       0.3732       0.1708
   2712.5000   2688.5002  -2666.5002      90.1003     164.4985      89.2081     184.9331       0.2276       0.2464       2.2889       0.3793       0.1447
   2712.6250   2688.6252  -2666.6252      89.6783     163.8133      86.7832     119.2957       0.2417       0.2367       2.3069       0.3925       0.2105
   2712.7500   2688.7502  -2666.7502      89.3237     163.5388      85.8309      65.9905       0.2709       0.2235       2.3309       0.4148       0.3163
   2712.8750   2688.8752  -2666.8752      89.1113     163.7522      80.6846      38.0134       0.2436       0.2112       2.3553       0.4267       0.2578
   2713.0000   2689.0002  -2667.0002      89.1769     164.6818      81.3657      25.7515       0.2738       0.2025       2.3684       0.4478       0.2655
   2713.1250   2689.1252  -2667.1252      89.4811     166.0747      76.5193      27.7703       0.2645       0.2042       2.3677       0.4456       0.2104
   2713.2500   2689.2502  -2667.2502      89.9635     167.7021      79.4939      32.8113       0.2676       0.2079       2.3631       0.4361       0.2443
   2713.3750   2689.3752  -2667.3752      90.5562     169.2933      84.9528      33.9733       0.2680       0.2087       2.3618       0.4305       0.3063
   2713.5000   2689.5002  -2667.5002      91.1823     170.5581      84.5639      27.9359       0.2411       0.2043       2.3668       0.4323       0.2863
   2713.6250   2689.6252  -2667.6252      91.7451     171.1481      92.1742      19.8794       0.2452       0.1967       2.3726       0.4454       0.3155
   2713.7500   2689.7502  -2667.7502      92.0510     170.8428      91.7114      27.2916       0.2634       0.2038       2.3692       0.4370       0.3550
   2713.8750   2689.8752  -2667.8752      92.0060     169.7359      82.8427      36.4074       0.2786       0.2102       2.3634       0.4299       0.2822
   2714.0000   2690.0002  -2668.0002      91.5507     167.8417      78.3881      36.1571       0.2843       0.2101       2.3636       0.4269       0.2317
   2714.1250   2690.1252  -2668.1252      90.6959     165.2489      80.8091      23.1681       0.2822       0.2001       2.3775       0.4310       0.2592
   2714.2500   2690.2502  -2668.2502      89.5273     162.1322      80.2177       8.4963       0.2822       0.1778       2.4100       0.4481       0.2524
   2714.3750   2690.3752  -2668.3752      88.2547     158.9585      85.7200       3.1346       0.3014       0.1556       2.4527       0.4998       0.3149
   2714.5000   2690.5002  -2668.5002      87.1221     156.2923      76.3788       1.5103       0.2705       0.1393       2.4817       0.5070       0.2088
   2714.6250   2690.6252  -2668.6252      86.2370     154.2875      74.9425       1.0628       0.2599       0.1315       2.4935       0.5069       0.1925
   2714.7500   2690.7502  -2668.7502      85.6745     152.9816      77.2683       1.1695       0.2693       0.1336       2.4892       0.4938       0.2190
   2714.8750   2690.8752  -2668.8752      85.4942     152.3519      74.6016       2.0272       0.2773       0.1459       2.4734       0.4799       0.1887
   2715.0000   2691.0002  -2669.0002      85.7896     152.4159      72.3305       3.9833       0.2750       0.1609       2.4520       0.4532       0.1629
   2715.1250   2691.1252  -2669.1252      86.6289     153.3836      71.8906       6.2885       0.2987       0.1711       2.4291       0.4251       0.1578
   2715.2500   2691.2502  -2669.2502      87.8424     155.0745      76.4262      13.0826       0.2951       0.1874       2.4014       0.4113       0.2094
   2715.3750   2691.3752  -2669.3752      89.3196     157.2802      77.9604      29.1912       0.2950       0.2053       2.3676       0.3518       0.2268
   2715.5000   2691.5002  -2669.5002      90.9248     159.7411      75.2144      72.8792       0.3053       0.2257       2.3278       0.2900       0.1956
   2715.6250   2691.6252  -2669.6252      92.5103     162.1830      73.1730     216.5697       0.3076       0.2500       2.2833       0.2571       0.1724
   2715.7500   2691.7502  -2669.7502      93.9150     164.3393      72.3858     363.8540       0.2817       0.2615       2.2463       0.2465       0.1635
   2715.8750   2691.8752  -2669.8752      95.0502     166.2163      64.0721     577.5972       0.2594       0.2718       2.2235       0.2411       0.0689
   2716.0000   2692.0002  -2670.0002      95.9640     167.8350      59.0143     860.9610       0.2652       0.2807       2.2144       0.2346       0.0115
   2716.1250   2692.1252  -2670.1252      96.6861     169.1316      58.6337     867.0865       0.2628       0.2809       2.2123       0.2294       0.0072
   2716.2500   2692.2502  -2670.2502      97.2198     170.0072      60.8083     734.2444       0.2346       0.2772       2.2079       0.2236       0.0319
   2716.3750   2692.3752  -2670.3752      97.5078     170.3222      61.5328    1326.9672       0.2365       0.2903       2.1923       0.2165       0.0401
   2716.5000   2692.5002  -2670.5002      97.3085     169.8111      67.2521    2736.0288       0.2832       0.3065       2.1639       0.1914       0.1052
   2716.6250   2692.6252  -2670.6252      96.6028     168.6722      64.8753    5630.5337       0.2635       0.3226       2.1389       0.1812       0.0702
   2716.7500   2692.7502  -2670.7502      95.4044     166.9539      60.6782    8795.8828       0.2296       0.3325       2.1267       0.1838       0.0010
   2716.8750   2692.8752  -2670.8752      93.7610     164.7301      60.1245    8455.6250       0.2110       0.3316       2.1334       0.1946       0.0010
   2717.0000   2693.0002  -2671.0002      91.7565     162.1090      64.7813    5141.3027       0.2106       0.3205       2.1615       0.2093       0.0010
   2717.1250   2693.1252  -2671.1252      89.5559     159.3028      60.1184    1597.6879       0.1995       0.2945       2.2058       0.2194       0.0010
   2717.2500   2693.2502  -2671.2502      87.4429     156.7372      61.0823     661.2594       0.1839       0.2748       2.2472       0.2258       0.0010
   2717.3750   2693.3752  -2671.3752      85.6115     154.7556      58.5234     133.2186       0.2106       0.2391       2.2702       0.2494       0.0059
   2717.5000   2693.5002  -2671.5002      84.2547     153.5621      54.1836     127.7146       0.2213       0.2382       2.2707       0.2520       0.0010
