#------------------------------------------------------------------------------
#
#   Created by  : [OpenWorks] Log Export Utility (LEXP)
#   Created on  : 2007-05-07 11:57:07
#   Project     : NORNE
#   User        : JSE
#   Interpreter : JSE
#
#------------------------------------------------------------------------------
~VERSION INFORMATION
VERS. 2.0 : CWLS Log ASCII Standard - version 2.0
WRAP.  NO : One line per depth step
~WELL INFORMATION
#MNEMONIC   .UNIT                                           VALUE :DESCRIPTION
#------------------------------------------------------------------------------
STRT        .M                                          1268.1250 :START DEPTH
STOP        .M                                          2919.8750 :STOP DEPTH
STEP        .M                                             0.1250 :STEP
NULL        .                                           -999.2500 :NULL VALUE
COMP        .                                             STATOIL :COMPANY
WELL        .                                       6608/10-B-4 H :WELL
FLD         .                                               NORNE :FIELD
LOC         .                                             UNKNOWN :LOCATION
CNTY        .                                             UNKNOWN :COUNTY
STAT        .                                             UNKNOWN :STATE
CTRY        .                                              Norway :COUNTRY
SRVC        .                                             UNKNOWN :SERVICE COMPANY
DATE        .                                             UNKNOWN :LOG DATE
UWI         .                                    NO 6608/10-B-4 H :UNIQUE WELL ID
XCOORD      .                                       457114.155174 :SURFACE X
YCOORD      .                                      7322136.377523 :SURFACE Y
LAT         .                                           66.015409 :LATITUDE
LON         .                                            8.054547 :LONGITUDE
ELEV        .M                                            22.0000 :SURFACE ELEV
ELEV_TYPE   .                                                  KB :ELEV TYPE
~CURVE INFORMATION
#MNEMONIC.UNIT        API CODE       : CURVE DESCRIPTION
#------------------------------------------------------------------------------
DEPTH    .M                          : Measured Depth
TVD      .M                          : True Vertical Depth (TVD)
TVDSS    .M                          : True Vertical Depth (TVDSS)
DT       .us/ft                      : DT:UNKNOWN:rC:NONE:v1 
DTS      .us/ft                      : DTS:UNKNOWN:rC:NONE:v1 
GR       .API         UNKNOWN        : GR:GR:rC::v0 (auto-composite)
KLOGH    .mD          UNKNOWN        : KLOGH:PETROWORKS:rC:NONE:v1 
NPHI     .v/v_decimal                : NPHI:UNKNOWN:rC:NONE:v1 
PHIF     .v/v_decimal UNKNOWN        : PHIF:PETROWORKS:rC:NONE:v1 
RHOB     .g/cm3       UNKNOWN        : RHOB:UNKNOWN:rC:NONE:v1 
SW       .v/v_decimal UNKNOWN        : SW:PETROWORKS:rC:NONE:v1 
VSH      .v/v_decimal UNKNOWN        : VSH:PETROWORKS:rC:NONE:v1 
~A     DEPTH         TVD       TVDSS           DT          DTS           GR        KLOGH         NPHI         PHIF         RHOB           SW          VSH
# ...
   2847.6250   2823.6243  -2801.6243      77.3982     143.4147     124.2884       0.0011       0.2520       0.0880       2.5303       1.0000       0.6062
   2847.7500   2823.7493  -2801.7493      76.8551     143.4557     109.2343       0.0001       0.2048       0.0402       2.6072       1.0000       0.5745
   2847.8750   2823.8743  -2801.8743      77.1866     145.4192     101.3245       0.0000       0.1536       0.0129       2.6498       1.0000       0.4813
   2848.0000   2823.9993  -2801.9993      78.2472     148.6791      95.5777       0.0000       0.1549       0.0156       2.6434       1.0000       0.4270
   2848.1250   2824.1243  -2802.1243      79.9470     152.6737      90.7163       0.0001       0.1873       0.0391       2.6007       1.0000       0.3717
   2848.2500   2824.2493  -2802.2493      82.0811     156.8756      90.9451       0.0009       0.2270       0.0831       2.5374       1.0000       0.3744
   2848.3750   2824.3743  -2802.3743      84.3475     160.7906     100.8024       0.0039       0.2546       0.1163       2.4700       1.0000       0.4864
   2848.5000   2824.4993  -2802.4993      86.3136     163.9585     118.7248       0.0162       0.2666       0.1478       2.4110       1.0000       0.5064
   2848.6250   2824.6243  -2802.6243      87.5862     166.1136     127.3340       0.0609       0.3151       0.1773       2.3611       1.0000       0.5851
   2848.7500   2824.7493  -2802.7493      88.3324     167.4293     117.2210       0.2406       0.2948       0.2079       2.3166       1.0000       0.4516
   2848.8750   2824.8743  -2802.8743      88.6625     168.0217     101.7585       1.2788       0.2623       0.2451       2.2792       0.9751       0.2681
   2849.0000   2824.9993  -2802.9993      88.6822     168.0577      88.4134       2.8828       0.2485       0.2632       2.2522       0.9532       0.1837
   2849.1250   2825.1243  -2803.1243      88.4810     167.7379      76.9348       2.8409       0.2395       0.2629       2.2391       0.9666       0.1545
   2849.2500   2825.2493  -2803.2493      88.1150     167.2423      86.9590       2.7967       0.2263       0.2625       2.2407       0.9579       0.1153
   2849.3750   2825.3743  -2803.3743      87.7114     166.7659      87.1865       3.5628       0.2210       0.2679       2.2417       0.9403       0.0880
   2849.5000   2825.4993  -2803.4993      87.4117     166.3870      83.5546       4.5505       0.2182       0.2734       2.2400       0.9334       0.0678
   2849.6250   2825.6243  -2803.6243      87.2844     166.1411      79.3783       3.8932       0.2417       0.2699       2.2357       0.9552       0.1462
   2849.7500   2825.7493  -2803.7493      87.3506     166.0354      77.8199       3.4119       0.2838       0.2670       2.2301       0.9870       0.2252
   2849.8750   2825.8743  -2803.8743      87.5902     166.0542      83.5685       5.5831       0.2337       0.2779       2.2252       0.9758       0.1031
   2850.0000   2825.9993  -2803.9993      87.9446     166.1408      86.2380       6.2513       0.2553       0.2804       2.2250       0.9482       0.1641
   2850.1250   2826.1243  -2804.1243      88.3314     166.2332      86.2133       4.0695       0.2608       0.2709       2.2305       0.9676       0.2018
   2850.2500   2826.2493  -2804.2493      88.7093     166.3550      86.1722       2.7778       0.2411       0.2624       2.2379       0.9988       0.1605
   2850.3750   2826.3743  -2804.3743      89.0508     166.5502      85.6061       2.2912       0.2196       0.2581       2.2447       1.0000       0.1045
   2850.5000   2826.4993  -2804.4993      89.3484     166.8667      82.1577       2.4592       0.2310       0.2597       2.2511       1.0000       0.1375
   2850.6250   2826.6243  -2804.6243      89.6586     167.3139      80.8678       2.3463       0.2254       0.2586       2.2651       1.0000       0.1249
   2850.7500   2826.7493  -2804.7493      90.1161     167.7603      84.0700       1.1567       0.2466       0.2429       2.2904       1.0000       0.2269
   2850.8750   2826.8743  -2804.8743      90.7339     168.1120      84.3189       0.5759       0.2433       0.2273       2.3122       1.0000       0.2530
   2851.0000   2826.9993  -2804.9993      91.4428     168.3196      84.7010       0.4528       0.2357       0.2220       2.3195       1.0000       0.2419
   2851.1250   2827.1243  -2805.1243      92.1349     168.3653      85.7073       0.6880       0.2445       0.2313       2.3064       1.0000       0.2474
   2851.2500   2827.2493  -2805.2493      92.6880     168.2630      77.9190       1.4130       0.2579       0.2473       2.2740       0.9901       0.2274
   2851.3750   2827.3743  -2805.3743      92.9405     168.0291      78.7642       3.4880       0.2765       0.2674       2.2457       0.9320       0.2360
   2851.5000   2827.4993  -2805.4993      93.0271     167.6805      79.7950       5.2459       0.2418       0.2765       2.2333       0.9449       0.1326
   2851.6250   2827.6243  -2805.6243      92.9796     167.2472      79.5725       4.5938       0.2271       0.2736       2.2363       0.9735       0.0942
   2851.7500   2827.7490  -2805.7490      92.7967     166.7786      77.9099       3.2004       0.2385       0.2655       2.2486       0.9976       0.1480
   2851.8750   2827.8740  -2805.8740      92.4475     166.3379      75.5743       2.2896       0.2403       0.2581       2.2614       0.9967       0.1712
   2852.0000   2827.9990  -2805.9990      91.8665     166.0171      73.7982       1.4956       0.2243       0.2486       2.2656       1.0000       0.1425
   2852.1250   2828.1240  -2806.1240      91.1270     165.8271      73.6464       1.8208       0.2622       0.2530       2.2660       1.0000       0.1778
   2852.2500   2828.2490  -2806.2490      90.3664     165.6746      77.9824       2.0125       0.2597       0.2552       2.2649       0.9990       0.2271
   2852.3750   2828.3740  -2806.3740      89.6527     165.4615      83.5565       2.0612       0.2369       0.2557       2.2625       0.9985       0.1658
   2852.5000   2828.4990  -2806.4990      89.0161     165.0932      87.7240       2.3122       0.2315       0.2583       2.2590       0.9919       0.1431
   2852.6250   2828.6240  -2806.6240      88.4520     164.5040      90.6260       2.8658       0.2724       0.2631       2.2550       0.9675       0.2573
   2852.7500   2828.7490  -2806.7490      87.8656     163.6673      94.3484       2.4073       0.2559       0.2592       2.2517       0.9822       0.2150
   2852.8750   2828.8740  -2806.8740      87.2141     162.7962      94.1412       1.5396       0.2510       0.2492       2.2543       0.9578       0.2212
   2853.0000   2828.9990  -2806.9990      86.4995     161.9203      91.7796       1.0165       0.2493       0.2400       2.2669       0.8816       0.2373
   2853.1250   2829.1240  -2807.1240      85.7488     161.0306      89.5163       0.5327       0.2369       0.2256       2.2910       0.8534       0.2333
   2853.2500   2829.2490  -2807.2490      85.0017     160.0873      89.4801       0.2061       0.2123       0.2044       2.3254       0.9131       0.2078
   2853.3750   2829.3740  -2807.3740      84.3190     159.0214      92.6897       0.0769       0.2336       0.1824       2.3648       0.9703       0.3255
   2853.5000   2829.4990  -2807.4990      83.7636     157.9225     119.5396       0.0281       0.2541       0.1600       2.4026       0.9630       0.4416
   2853.6250   2829.6240  -2807.6240      83.3348     156.9443     117.9327       0.0130       0.2581       0.1429       2.4324       0.9650       0.4945
   2853.7500   2829.7490  -2807.7490      83.0357     156.1424     109.4582       0.0081       0.2500       0.1322       2.4511       0.9856       0.4950
   2853.8750   2829.8740  -2807.8740      82.8622     155.5214     110.5795       0.0068       0.2410       0.1283       2.4579       0.9989       0.4768
   2854.0000   2829.9990  -2807.9990      82.8019     155.0401     119.3618       0.0075       0.2448       0.1305       2.4536       0.9597       0.4833
