#------------------------------------------------------------------------------
#
#   Created by  : [OpenWorks] Log Export Utility (LEXP)
#   Created on  : 2007-05-07 11:57:07
#   Project     : NORNE
#   User        : JSE
#   Interpreter : JSE
#
#------------------------------------------------------------------------------
~VERSION INFORMATION
VERS. 2.0 : CWLS Log ASCII Standard - version 2.0
WRAP.  NO : One line per depth step
~WELL INFORMATION
#MNEMONIC   .UNIT                                           VALUE :DESCRIPTION
#------------------------------------------------------------------------------
STRT        .M                                          1268.1250 :START DEPTH
STOP        .M                                          2919.8750 :STOP DEPTH
STEP        .M                                             0.1250 :STEP
NULL        .                                           -999.2500 :NULL VALUE
COMP        .                                             STATOIL :COMPANY
WELL        .                                       6608/10-B-4 H :WELL
FLD         .                                               NORNE :FIELD
LOC         .                                             UNKNOWN :LOCATION
CNTY        .                                             UNKNOWN :COUNTY
STAT        .                                             UNKNOWN :STATE
CTRY        .                                              Norway :COUNTRY
SRVC        .                                             UNKNOWN :SERVICE COMPANY
DATE        .                                             UNKNOWN :LOG DATE
UWI         .                                    NO 6608/10-B-4 H :UNIQUE WELL ID
XCOORD      .                                       457114.155174 :SURFACE X
YCOORD      .                                      7322136.377523 :SURFACE Y
LAT         .                                           66.015409 :LATITUDE
LON         .                                            8.054547 :LONGITUDE
ELEV        .M                                            22.0000 :SURFACE ELEV
ELEV_TYPE   .                                                  KB :ELEV TYPE
~CURVE INFORMATION
#MNEMONIC.UNIT        API CODE       : CURVE DESCRIPTION
#------------------------------------------------------------------------------
DEPTH    .M                          : Measured Depth
TVD      .M                          : True Vertical Depth (TVD)
TVDSS    .M                          : True Vertical Depth (TVDSS)
DT       .us/ft                      : DT:UNKNOWN:rC:NONE:v1 
DTS      .us/ft                      : DTS:UNKNOWN:rC:NONE:v1 
GR       .API         UNKNOWN        : GR:GR:rC::v0 (auto-composite)
KLOGH    .mD          UNKNOWN        : KLOGH:PETROWORKS:rC:NONE:v1 
NPHI     .v/v_decimal                : NPHI:UNKNOWN:rC:NONE:v1 
PHIF     .v/v_decimal UNKNOWN        : PHIF:PETROWORKS:rC:NONE:v1 
RHOB     .g/cm3       UNKNOWN        : RHOB:UNKNOWN:rC:NONE:v1 
SW       .v/v_decimal UNKNOWN        : SW:PETROWORKS:rC:NONE:v1 
VSH      .v/v_decimal UNKNOWN        : VSH:PETROWORKS:rC:NONE:v1 
~A     DEPTH         TVD       TVDSS           DT          DTS           GR        KLOGH         NPHI         PHIF         RHOB           SW          VSH
# ...
   2821.6250   2797.6248  -2775.6248      87.7544     167.0305     101.8532      33.8365       0.2244       0.2086       2.3218       1.0000       0.2360
   2821.7500   2797.7498  -2775.7498      87.3335     166.9655     104.4476      21.5215       0.2088       0.1985       2.3289       1.0000       0.2106
   2821.8750   2797.8748  -2775.8748      86.9874     166.9201     105.9642      13.4210       0.2209       0.1880       2.3418       1.0000       0.2718
   2822.0000   2797.9998  -2775.9998      86.7426     166.8969     107.5196      10.9920       0.2045       0.1835       2.3578       1.0000       0.2334
   2822.1250   2798.1248  -2776.1248      86.6269     166.9650     103.1758       8.3192       0.2116       0.1773       2.3693       1.0000       0.2700
   2822.2500   2798.2498  -2776.2498      86.5988     167.2019     100.2073       7.5129       0.2094       0.1751       2.3724       1.0000       0.2686
   2822.3750   2798.3748  -2776.3748      86.6164     167.6084     101.8033       7.6218       0.1996       0.1754       2.3714       1.0000       0.2379
   2822.5000   2798.4998  -2776.4998      86.6554     168.1568     102.5385       8.4479       0.2051       0.1777       2.3659       0.9877       0.2489
   2822.6250   2798.6248  -2776.6248      86.6953     168.7909      99.0177       9.7162       0.2281       0.1808       2.3580       0.9850       0.3114
   2822.7500   2798.7498  -2776.7498      86.7175     169.4251      97.3332       9.8988       0.2151       0.1812       2.3580       0.9890       0.2708
   2822.8750   2798.8748  -2776.8748      86.6964     169.9969     103.6649       3.8311       0.2153       0.1600       2.3949       1.0000       0.3220
   2823.0000   2798.9998  -2776.9998      86.6506     170.5777     109.5743       0.9409       0.2022       0.1288       2.4506       1.0000       0.3566
   2823.1250   2799.1248  -2777.1248      86.5884     171.1995     112.6333       0.1900       0.2495       0.0931       2.5064       1.0000       0.5848
   2823.2500   2799.2498  -2777.2498      86.5119     171.8398     112.9659       0.0605       0.3229       0.0676       2.5457       1.0000       0.6246
   2823.3750   2799.3748  -2777.3748      86.4179     172.4282     113.7219       0.0427       0.3300       0.0599       2.5577       1.0000       0.6331
   2823.5000   2799.4998  -2777.4998      86.2965     172.8113     126.7180       0.0595       0.2995       0.0673       2.5446       1.0000       0.7808
   2823.6250   2799.6248  -2777.6248      86.1454     172.9177     128.4956       0.0867       0.3415       0.0756       2.5285       1.0000       0.8011
   2823.7500   2799.7498  -2777.7498      86.0023     172.8682     139.8854       0.1264       0.3192       0.0840       2.5176       1.0000       0.8189
   2823.8750   2799.8748  -2777.8748      85.8940     172.7649     149.9301       0.1544       0.3138       0.0885       2.5115       1.0000       0.7919
   2824.0000   2799.9998  -2777.9998      85.8331     172.6638     149.0708       0.1364       0.3553       0.0857       2.5103       1.0000       0.9143
   2824.1250   2800.1248  -2778.1248      85.8110     172.5420     141.0010       0.1184       0.3220       0.0826       2.5160       1.0000       0.8310
   2824.2500   2800.2498  -2778.2498      85.8365     172.2817     148.1179       0.0522       0.3723       0.0643       2.5407       1.0000       0.9357
   2824.3750   2800.3748  -2778.3748      85.9567     171.9767     149.8036       0.0381       0.3748       0.0573       2.5550       1.0000       0.9427
   2824.5000   2800.4998  -2778.4998      86.2381     171.7253     138.5599       0.0603       0.3659       0.0675       2.5414       1.0000       0.9154
   2824.6250   2800.6248  -2778.6248      86.7044     171.5875     118.7427       0.1943       0.3400       0.0936       2.4975       1.0000       0.6903
   2824.7500   2800.7498  -2778.7498      87.3362     171.5705     101.8545       1.5953       0.2859       0.1405       2.4333       1.0000       0.4983
   2824.8750   2800.8748  -2778.8748      88.0468     171.5664     102.2854       9.3284       0.2731       0.1799       2.3726       0.9850       0.4534
   2825.0000   2800.9998  -2778.9998      88.6798     171.3477     104.0196      13.9735       0.2958       0.1889       2.3454       0.9608       0.4996
   2825.1250   2801.1248  -2779.1248      89.1800     170.9070     104.9910      14.4603       0.2845       0.1896       2.3431       0.9634       0.4631
   2825.2500   2801.2498  -2779.2498      89.5334     170.3083     106.5140      13.0058       0.2524       0.1873       2.3524       0.9715       0.3715
   2825.3750   2801.3748  -2779.3748      89.7316     169.6121     107.9239      12.7726       0.2276       0.1869       2.3600       0.9574       0.2977
   2825.5000   2801.4998  -2779.4998      89.7625     168.8485     105.8352      14.8802       0.2372       0.1903       2.3555       0.9182       0.3191
   2825.6250   2801.6248  -2779.6248      89.5532     167.9681     104.4262      22.6735       0.2431       0.1997       2.3382       0.9051       0.3149
   2825.7500   2801.7498  -2779.7498      89.1560     166.9550     102.0907      35.9390       0.2228       0.2099       2.3250       0.8959       0.2291
   2825.8750   2801.8748  -2779.8748      88.6107     165.7635     108.0027      26.5518       0.2322       0.2032       2.3229       0.9297       0.2714
   2826.0000   2801.9998  -2779.9998      87.9194     164.3509     114.4591      15.8182       0.2390       0.1916       2.3382       0.9598       0.3192
   2826.1250   2802.1248  -2780.1248      87.0639     162.6742     112.0737       7.9780       0.2144       0.1764       2.3765       0.9992       0.2823
   2826.2500   2802.2498  -2780.2498      85.9940     160.6532     109.1467       1.1462       0.2632       0.1332       2.4446       1.0000       0.5332
   2826.3750   2802.3745  -2780.3745      84.6968     158.2646     110.0081       0.0774       0.2693       0.0731       2.5373       1.0000       0.5910
   2826.5000   2802.4995  -2780.4995      83.3091     155.7431     115.2446       0.0061       0.2803       0.0165       2.6246       1.0000       0.6505
   2826.6250   2802.6245  -2780.6245      81.9429     153.2966     124.1331       0.0030       0.2947       0.0010       2.6907       1.0000       0.7515
   2826.7500   2802.7495  -2780.7495      80.7051     151.1201     130.5897       0.0030       0.3126       0.0010       2.7257       1.0000       0.8249
   2826.8750   2802.8745  -2780.8745      79.6871     149.3775     125.6404       0.0030       0.3358       0.0010       2.7264       1.0000       0.7686
   2827.0000   2802.9995  -2780.9995      78.9888     148.3117     122.9335       0.0030       0.3101       0.0010       2.6993       1.0000       0.7379
   2827.1250   2803.1245  -2781.1245      78.6200     147.9288     113.3949       0.0030       0.2900       0.0010       2.6564       1.0000       0.6295
   2827.2500   2803.2495  -2781.2495      78.5783     148.1566     101.1092       0.0145       0.2704       0.0358       2.5947       1.0000       0.4899
   2827.3750   2803.3745  -2781.3745      78.8570     148.9871      92.7369       0.1486       0.2781       0.0876       2.5149       1.0000       0.3947
   2827.5000   2803.4995  -2781.4995      79.4422     150.4073      94.8866       1.2167       0.3143       0.1345       2.4228       0.9070       0.4190
   2827.6250   2803.6245  -2781.6245      80.3349     152.3962     112.1561      12.4073       0.2946       0.1862       2.3333       0.7059       0.4997
   2827.7500   2803.7495  -2781.7495      81.5491     154.8781      83.1419      48.3346       0.2503       0.2165       2.2771       0.6967       0.2856
   2827.8750   2803.8745  -2781.8745      82.9219     157.4767      73.1262      92.6968       0.2286       0.2310       2.2484       0.7731       0.1719
   2828.0000   2803.9995  -2781.9995      84.3452     159.9499      70.1039     137.0487       0.2249       0.2398       2.2356       0.8692       0.1376
