#------------------------------------------------------------------------------
#
#   Created by  : [OpenWorks] Log Export Utility (LEXP)
#   Created on  : 2007-05-07 11:57:07
#   Project     : NORNE
#   User        : JSE
#   Interpreter : JSE
#
#------------------------------------------------------------------------------
~VERSION INFORMATION
VERS. 2.0 : CWLS Log ASCII Standard - version 2.0
WRAP.  NO : One line per depth step
~WELL INFORMATION
#MNEMONIC   .UNIT                                           VALUE :DESCRIPTION
#------------------------------------------------------------------------------
STRT        .M                                          1268.1250 :START DEPTH
STOP        .M                                          2919.8750 :STOP DEPTH
STEP        .M                                             0.1250 :STEP
NULL        .                                           -999.2500 :NULL VALUE
COMP        .                                             STATOIL :COMPANY
WELL        .                                       6608/10-B-4 H :WELL
FLD         .                                               NORNE :FIELD
LOC         .                                             UNKNOWN :LOCATION
CNTY        .                                             UNKNOWN :COUNTY
STAT        .                                             UNKNOWN :STATE
CTRY        .                                              Norway :COUNTRY
SRVC        .                                             UNKNOWN :SERVICE COMPANY
DATE        .                                             UNKNOWN :LOG DATE
UWI         .                                    NO 6608/10-B-4 H :UNIQUE WELL ID
XCOORD      .                                       457114.155174 :SURFACE X
YCOORD      .                                      7322136.377523 :SURFACE Y
LAT         .                                           66.015409 :LATITUDE
LON         .                                            8.054547 :LONGITUDE
ELEV        .M                                            22.0000 :SURFACE ELEV
ELEV_TYPE   .                                                  KB :ELEV TYPE
~CURVE INFORMATION
#MNEMONIC.UNIT        API CODE       : CURVE DESCRIPTION
#------------------------------------------------------------------------------
DEPTH    .M                          : Measured Depth
TVD      .M                          : True Vertical Depth (TVD)
TVDSS    .M                          : True Vertical Depth (TVDSS)
DT       .us/ft                      : DT:UNKNOWN:rC:NONE:v1 
DTS      .us/ft                      : DTS:UNKNOWN:rC:NONE:v1 
GR       .API         UNKNOWN        : GR:GR:rC::v0 (auto-composite)
KLOGH    .mD          UNKNOWN        : KLOGH:PETROWORKS:rC:NONE:v1 
NPHI     .v/v_decimal                : NPHI:UNKNOWN:rC:NONE:v1 
PHIF     .v/v_decimal UNKNOWN        : PHIF:PETROWORKS:rC:NONE:v1 
RHOB     .g/cm3       UNKNOWN        : RHOB:UNKNOWN:rC:NONE:v1 
SW       .v/v_decimal UNKNOWN        : SW:PETROWORKS:rC:NONE:v1 
VSH      .v/v_decimal UNKNOWN        : VSH:PETROWORKS:rC:NONE:v1 
~A     DEPTH         TVD       TVDSS           DT          DTS           GR        KLOGH         NPHI         PHIF         RHOB           SW          VSH
# ...
   2665.6250   2641.6255  -2619.6255      95.0546     168.8215      75.9651     230.6638       0.2189       0.2745       2.2189       0.2669       0.0491
   2665.7500   2641.7505  -2619.7505      95.7771     168.8256      75.4626     251.5306       0.2664       0.2768       2.2102       0.2439       0.1856
   2665.8750   2641.8755  -2619.8755      96.6401     168.9252      74.4614     392.3134       0.2994       0.2889       2.1851       0.1608       0.1871
   2666.0000   2642.0005  -2620.0005      97.5425     169.1518      73.1169    1254.4202       0.2778       0.2979       2.1465       0.1082       0.1680
   2666.1250   2642.1255  -2620.1255      98.3989     169.5296      71.0642    2000.0000       0.2384       0.3209       2.1024       0.0836       0.0010
   2666.2500   2642.2505  -2620.2505      99.1444     170.0664      67.6594    2000.0000       0.2508       0.3508       2.0644       0.0754       0.0010
   2666.3750   2642.3755  -2620.3755      99.7228     170.7285      61.7911    2000.0000       0.2372       0.3642       2.0471       0.0789       0.0010
   2666.5000   2642.5005  -2620.5005     100.1316     171.3747      62.6383    2000.0000       0.2398       0.3620       2.0472       0.0848       0.0010
   2666.6250   2642.6255  -2620.6255     100.3878     171.9352      63.1080    2000.0000       0.2466       0.3611       2.0512       0.0888       0.0010
   2666.7500   2642.7505  -2620.7505     100.5073     172.3814      63.2541    2000.0000       0.2520       0.3617       2.0533       0.0913       0.0010
   2666.8750   2642.8755  -2620.8755     100.5163     172.7243      64.2915    2000.0000       0.2576       0.3620       2.0509       0.0916       0.0010
   2667.0000   2643.0005  -2621.0005     100.4490     173.0230      66.8630    2000.0000       0.2740       0.3647       2.0460       0.0846       0.0010
   2667.1250   2643.1255  -2621.1255     100.3458     173.4662      67.9133    2000.0000       0.2328       0.3691       2.0427       0.0706       0.0010
   2667.2500   2643.2505  -2621.2505     100.2373     173.9988      63.4680    2000.0000       0.2551       0.3721       2.0394       0.0655       0.0010
   2667.3750   2643.3755  -2621.3755     100.1182     174.4335      61.4195    2000.0000       0.2603       0.3736       2.0380       0.0650       0.0010
   2667.5000   2643.5005  -2621.5005      99.9912     174.6176      63.0533    2000.0000       0.2404       0.3713       2.0405       0.0676       0.0010
   2667.6250   2643.6255  -2621.6255      99.8662     174.4661      64.6239    2000.0000       0.2279       0.3639       2.0485       0.0717       0.0010
   2667.7500   2643.7505  -2621.7505      99.7620     174.0361      57.2196    2000.0000       0.2349       0.3615       2.0608       0.0718       0.0010
   2667.8750   2643.8755  -2621.8755      99.6801     173.5172      52.6608    2000.0000       0.2569       0.3521       2.0731       0.0739       0.0010
   2668.0000   2644.0005  -2622.0005      99.6141     172.9501      58.8111    2000.0000       0.2443       0.3507       2.0770       0.0739       0.0010
   2668.1250   2644.1255  -2622.1255      99.5645     172.3223      62.1114    2000.0000       0.2311       0.3541       2.0720       0.0711       0.0010
   2668.2500   2644.2505  -2622.2505      99.5287     171.6416      60.1237    2000.0000       0.2393       0.3583       2.0614       0.0657       0.0010
   2668.3750   2644.3755  -2622.3755      99.4991     170.9570      68.3139    2000.0000       0.2548       0.3628       2.0510       0.0589       0.0010
   2668.5000   2644.5005  -2622.5005      99.4655     170.5531      65.7867    2000.0000       0.2282       0.3644       2.0502       0.0587       0.0010
   2668.6250   2644.6255  -2622.6255      99.4286     170.4929      62.3957    2000.0000       0.2245       0.3608       2.0579       0.0640       0.0010
   2668.7500   2644.7505  -2622.7505      99.3894     170.6081      61.5540    2000.0000       0.2284       0.3546       2.0688       0.0734       0.0010
   2668.8750   2644.8755  -2622.8755      99.3470     170.7387      62.3864    2000.0000       0.2429       0.3490       2.0787       0.0837       0.0010
   2669.0000   2645.0005  -2623.0005      99.2991     170.7634      62.9339    2000.0000       0.2701       0.3465       2.0848       0.0873       0.0321
   2669.1250   2645.1255  -2623.1255      99.2402     170.6733      64.1967    2000.0000       0.2802       0.3483       2.0831       0.0860       0.0583
   2669.2500   2645.2505  -2623.2505      99.1734     170.5976      61.5754    2000.0000       0.2614       0.3511       2.0784       0.0833       0.0010
   2669.3750   2645.3755  -2623.3755      99.1359     170.5988      60.7246    2000.0000       0.2641       0.3505       2.0782       0.0863       0.0045
   2669.5000   2645.5005  -2623.5005      99.1529     170.7002      64.2164    2000.0000       0.2695       0.3484       2.0810       0.0925       0.0256
   2669.6250   2645.6255  -2623.6255      99.2322     170.8899      68.2687    2000.0000       0.2599       0.3467       2.0842       0.1017       0.0010
   2669.7500   2645.7505  -2623.7505      99.3623     171.1250      64.6690    2000.0000       0.2313       0.3440       2.0846       0.1102       0.0010
   2669.8750   2645.8755  -2623.8755      99.5147     171.3806      69.6069    2000.0000       0.2420       0.3485       2.0772       0.1055       0.0010
   2670.0000   2646.0005  -2624.0005      99.6625     171.6776      64.2528    2000.0000       0.2831       0.3544       2.0657       0.1007       0.0517
   2670.1250   2646.1255  -2624.1255      99.8094     172.0171      64.3564    2000.0000       0.2813       0.3581       2.0575       0.0958       0.0371
   2670.2500   2646.2505  -2624.2505      99.9562     172.3850      64.5715    2000.0000       0.2619       0.3599       2.0553       0.0921       0.0010
   2670.3750   2646.3755  -2624.3755     100.0964     172.7665      59.2000    2000.0000       0.2556       0.3604       2.0587       0.0889       0.0010
   2670.5000   2646.5005  -2624.5005     100.2053     173.1629      59.8580    2000.0000       0.2185       0.3589       2.0628       0.0870       0.0010
   2670.6250   2646.6255  -2624.6255     100.2218     173.5491      58.7338    2000.0000       0.2323       0.3564       2.0599       0.0855       0.0010
   2670.7500   2646.7505  -2624.7505     100.1402     173.8626      55.5931    2000.0000       0.2615       0.3588       2.0529       0.0791       0.0010
   2670.8750   2646.8755  -2624.8755      99.9742     174.0961      60.1316    2000.0000       0.2612       0.3637       2.0464       0.0739       0.0010
   2671.0000   2647.0005  -2625.0005      99.7543     174.2385      67.3921    2000.0000       0.2458       0.3676       2.0437       0.0709       0.0010
   2671.1250   2647.1255  -2625.1255      99.5209     174.2785      63.1418    2000.0000       0.2686       0.3663       2.0465       0.0698       0.0010
   2671.2500   2647.2505  -2625.2505      99.3067     174.2227      60.3964    2000.0000       0.2875       0.3622       2.0531       0.0769       0.0272
   2671.3750   2647.3755  -2625.3755      99.1060     174.0531      62.0422    2000.0000       0.2805       0.3578       2.0582       0.0787       0.0359
   2671.5000   2647.5005  -2625.5005      98.9085     173.7508      63.7115    2000.0000       0.2626       0.3559       2.0589       0.0792       0.0010
   2671.6250   2647.6255  -2625.6255      98.7254     173.3213      65.0791    2000.0000       0.2397       0.3565       2.0570       0.0764       0.0010
   2671.7500   2647.7505  -2625.7505      98.5822     172.8065      64.8904    2000.0000       0.2199       0.3590       2.0553       0.0706       0.0010
   2671.8750   2647.8755  -2625.8755      98.5190     172.2890      58.2000    2000.0000       0.2192       0.3603       2.0570       0.0637       0.0010
   2672.0000   2648.0005  -2626.0005      98.5852     172.0168      59.7288    2000.0000       0.2328       0.3562       2.0675       0.0782       0.0010
