#------------------------------------------------------------------------------
#
#   Created by  : [OpenWorks] Log Export Utility (LEXP)
#   Created on  : 2007-05-07 11:57:07
#   Project     : NORNE
#   User        : JSE
#   Interpreter : JSE
#
#------------------------------------------------------------------------------
~VERSION INFORMATION
VERS. 2.0 : CWLS Log ASCII Standard - version 2.0
WRAP.  NO : One line per depth step
~WELL INFORMATION
#MNEMONIC   .UNIT                                           VALUE :DESCRIPTION
#------------------------------------------------------------------------------
STRT        .M                                          1268.1250 :START DEPTH
STOP        .M                                          2919.8750 :STOP DEPTH
STEP        .M                                             0.1250 :STEP
NULL        .                                           -999.2500 :NULL VALUE
COMP        .                                             STATOIL :COMPANY
WELL        .                                       6608/10-B-4 H :WELL
FLD         .                                               NORNE :FIELD
LOC         .                                             UNKNOWN :LOCATION
CNTY        .                                             UNKNOWN :COUNTY
STAT        .                                             UNKNOWN :STATE
CTRY        .                                              Norway :COUNTRY
SRVC        .                                             UNKNOWN :SERVICE COMPANY
DATE        .                                             UNKNOWN :LOG DATE
UWI         .                                    NO 6608/10-B-4 H :UNIQUE WELL ID
XCOORD      .                                       457114.155174 :SURFACE X
YCOORD      .                                      7322136.377523 :SURFACE Y
LAT         .                                           66.015409 :LATITUDE
LON         .                                            8.054547 :LONGITUDE
ELEV        .M                                            22.0000 :SURFACE ELEV
ELEV_TYPE   .                                                  KB :ELEV TYPE
~CURVE INFORMATION
#MNEMONIC.UNIT        API CODE       : CURVE DESCRIPTION
#------------------------------------------------------------------------------
DEPTH    .M                          : Measured Depth
TVD      .M                          : True Vertical Depth (TVD)
TVDSS    .M                          : True Vertical Depth (TVDSS)
DT       .us/ft                      : DT:UNKNOWN:rC:NONE:v1 
DTS      .us/ft                      : DTS:UNKNOWN:rC:NONE:v1 
GR       .API         UNKNOWN        : GR:GR:rC::v0 (auto-composite)
KLOGH    .mD          UNKNOWN        : KLOGH:PETROWORKS:rC:NONE:v1 
NPHI     .v/v_decimal                : NPHI:UNKNOWN:rC:NONE:v1 
PHIF     .v/v_decimal UNKNOWN        : PHIF:PETROWORKS:rC:NONE:v1 
RHOB     .g/cm3       UNKNOWN        : RHOB:UNKNOWN:rC:NONE:v1 
SW       .v/v_decimal UNKNOWN        : SW:PETROWORKS:rC:NONE:v1 
VSH      .v/v_decimal UNKNOWN        : VSH:PETROWORKS:rC:NONE:v1 
~A     DEPTH         TVD       TVDSS           DT          DTS           GR        KLOGH         NPHI         PHIF         RHOB           SW          VSH
# ...
   2867.1250   2843.1238  -2821.1238      85.5895     164.7623     113.3414       0.0039       0.3007       0.1162       2.4839       1.0000       0.6289
   2867.2500   2843.2488  -2821.2488      85.6133     164.8271     105.0625       0.0035       0.2731       0.1136       2.4889       1.0000       0.5347
   2867.3750   2843.3738  -2821.3738      85.6363     164.8840     107.5639       0.0038       0.2868       0.1153       2.4850       1.0000       0.5632
   2867.5000   2843.4988  -2821.4988      85.6278     164.8228     110.3418       0.0052       0.2695       0.1223       2.4717       1.0000       0.5804
   2867.6250   2843.6238  -2821.6238      85.5711     164.5759     113.8014       0.0080       0.2637       0.1319       2.4535       0.9902       0.5394
   2867.7500   2843.7488  -2821.7488      85.4534     164.1165     115.8872       0.0119       0.2648       0.1408       2.4372       0.9369       0.5214
   2867.8750   2843.8738  -2821.8738      85.2674     163.4532     114.0990       0.0145       0.2442       0.1453       2.4288       0.9145       0.4476
   2868.0000   2843.9988  -2821.9988      85.0048     162.5801     116.6910       0.0148       0.2791       0.1458       2.4272       0.8998       0.5535
   2868.1250   2844.1238  -2822.1238      84.6834     161.5463     116.4083       0.0153       0.2563       0.1464       2.4256       0.8858       0.4819
   2868.2500   2844.2488  -2822.2488      84.3168     160.4261     118.9786       0.0149       0.2450       0.1459       2.4255       0.8932       0.4483
   2868.3750   2844.3738  -2822.3738      83.9242     159.2929     117.9219       0.0134       0.2365       0.1436       2.4296       0.9111       0.4276
   2868.5000   2844.4988  -2822.4988      83.5339     158.2390     112.1620       0.0103       0.2308       0.1376       2.4399       0.9319       0.4243
   2868.6250   2844.6238  -2822.6238      83.1820     157.3750     114.1130       0.0059       0.2704       0.1253       2.4580       0.9663       0.5745
   2868.7500   2844.7488  -2822.7488      82.9470     156.7723     111.8561       0.0035       0.2684       0.1133       2.4801       1.0000       0.5971
   2868.8750   2844.8738  -2822.8738      82.8235     156.2809     117.7244       0.0023       0.2586       0.1042       2.4971       1.0000       0.5888
   2869.0000   2844.9988  -2822.9988      82.8013     155.8213     116.2065       0.0020       0.2679       0.1009       2.5045       1.0000       0.6255
   2869.1250   2845.1238  -2823.1238      82.8567     155.3237     110.3662       0.0023       0.2889       0.1044       2.4991       1.0000       0.5951
   2869.2500   2845.2488  -2823.2488      82.9533     154.7283     111.6587       0.0034       0.2960       0.1131       2.4813       0.9310       0.6098
   2869.3750   2845.3738  -2823.3738      83.0305     153.9628     118.9727       0.0056       0.2722       0.1241       2.4592       0.8608       0.5830
   2869.5000   2845.4988  -2823.4988      83.0107     153.0150     117.6347       0.0075       0.2849       0.1305       2.4481       0.9010       0.6068
   2869.6250   2845.6238  -2823.6238      82.8589     152.0034     108.7977       0.0089       0.2672       0.1343       2.4478       1.0000       0.5444
   2869.7500   2845.7488  -2823.7488      82.5746     151.0229      95.1229       0.0102       0.2442       0.1375       2.4549       1.0000       0.4218
   2869.8750   2845.8738  -2823.8738      82.1848     150.1826      81.7410       0.0076       0.2307       0.1310       2.4652       1.0000       0.2697
   2870.0000   2845.9988  -2823.9988      81.7421     149.6029      75.8003       0.0059       0.2088       0.1252       2.4742       1.0000       0.2023
   2870.1250   2846.1238  -2824.1238      81.3138     149.4798      74.3545       0.0041       0.2201       0.1170       2.4833       1.0000       0.1858
   2870.2500   2846.2488  -2824.2488      80.9621     149.7395      75.9520       0.0026       0.2124       0.1068       2.4929       1.0000       0.2040
   2870.3750   2846.3738  -2824.3738      80.7365     150.2985      79.4126       0.0019       0.1978       0.1006       2.5008       1.0000       0.2433
   2870.5000   2846.4988  -2824.4988      80.6812     151.0457      84.9495       0.0018       0.1880       0.0984       2.5050       1.0000       0.3062
   2870.6250   2846.6238  -2824.6238      80.8234     151.8546      93.8457       0.0021       0.1989       0.1027       2.5031       1.0000       0.4074
   2870.7500   2846.7488  -2824.7488      81.1697     152.6062     109.4461       0.0029       0.2645       0.1096       2.4899       1.0000       0.5847
   2870.8750   2846.8738  -2824.8738      81.6433     153.2835     116.0239       0.0046       0.2850       0.1197       2.4715       0.9771       0.6336
   2871.0000   2846.9988  -2824.9988      82.1511     153.9589     121.5162       0.0076       0.2652       0.1309       2.4491       0.9059       0.5457
   2871.1250   2847.1238  -2825.1238      82.6632     154.6371     125.9658       0.0131       0.2529       0.1431       2.4290       0.8541       0.4792
   2871.2500   2847.2488  -2825.2488      83.1668     155.2919     126.6522       0.0210       0.2538       0.1535       2.4168       0.8351       0.4583
   2871.3750   2847.3738  -2825.3738      83.6603     155.8734     119.7491       0.0186       0.2305       0.1508       2.4163       0.8777       0.3922
   2871.5000   2847.4988  -2825.4988      84.1018     156.3166     114.2131       0.0167       0.2592       0.1484       2.4220       0.9050       0.4862
   2871.6250   2847.6238  -2825.6238      84.4511     156.6484     112.7555       0.0163       0.2635       0.1479       2.4250       0.9284       0.5010
   2871.7500   2847.7488  -2825.7488      84.7164     156.9174     111.4631       0.0181       0.2787       0.1502       2.4230       0.9278       0.5426
   2871.8750   2847.8738  -2825.8738      84.9125     157.1181     107.7347       0.0212       0.2992       0.1537       2.4190       0.9141       0.5652
   2872.0000   2847.9988  -2825.9988      85.0578     157.2101     102.7554       0.0204       0.3018       0.1529       2.4173       0.9074       0.5086
   2872.1250   2848.1238  -2826.1238      85.1644     157.1026     106.4100       0.0149       0.2546       0.1459       2.4189       0.9232       0.4770
   2872.2500   2848.2488  -2826.2488      85.2254     156.7970     106.9321       0.0166       0.2562       0.1482       2.4214       0.8925       0.4774
   2872.3750   2848.3738  -2826.3738      85.2549     156.5007     103.8911       0.0167       0.2464       0.1484       2.4232       0.8662       0.4472
   2872.5000   2848.4988  -2826.4988      85.2699     156.3793     103.8788       0.0169       0.2615       0.1486       2.4227       0.8646       0.4932
   2872.6250   2848.6238  -2826.6238      85.2873     156.5367     104.0583       0.0188       0.2911       0.1511       2.4208       0.8772       0.5233
   2872.7500   2848.7488  -2826.7488      85.3210     156.9960      96.5975       0.0212       0.2922       0.1538       2.4199       0.8703       0.4386
   2872.8750   2848.8738  -2826.8738      85.3832     157.6325     101.9489       0.0184       0.3219       0.1506       2.4182       0.8946       0.4994
   2873.0000   2848.9988  -2826.9988      85.4823     158.1761     110.9294       0.0207       0.2930       0.1532       2.4138       0.8716       0.5788
   2873.1250   2849.1238  -2827.1238      85.6136     158.5521     113.4879       0.0249       0.2920       0.1573       2.4083       0.8330       0.5661
   2873.2500   2849.2488  -2827.2488      85.7586     158.7463     113.1453       0.0278       0.2791       0.1598       2.4026       0.8064       0.5204
   2873.3750   2849.3738  -2827.3738      85.8908     158.7589     114.0588       0.0290       0.2339       0.1607       2.3963       0.8020       0.3787
   2873.5000   2849.4988  -2827.4988      85.9785     158.5762     114.5530       0.0331       0.2381       0.1637       2.3880       0.8021       0.3837
