#------------------------------------------------------------------------------
#
#   Created by  : [OpenWorks] Log Export Utility (LEXP)
#   Created on  : 2007-05-07 11:57:07
#   Project     : NORNE
#   User        : JSE
#   Interpreter : JSE
#
#------------------------------------------------------------------------------
~VERSION INFORMATION
VERS. 2.0 : CWLS Log ASCII Standard - version 2.0
WRAP.  NO : One line per depth step
~WELL INFORMATION
#MNEMONIC   .UNIT                                           VALUE :DESCRIPTION
#------------------------------------------------------------------------------
STRT        .M                                          1268.1250 :START DEPTH
STOP        .M                                          2919.8750 :STOP DEPTH
STEP        .M                                             0.1250 :STEP
NULL        .                                           -999.2500 :NULL VALUE
COMP        .                                             STATOIL :COMPANY
WELL        .                                       6608/10-B-4 H :WELL
FLD         .                                               NORNE :FIELD
LOC         .                                             UNKNOWN :LOCATION
CNTY        .                                             UNKNOWN :COUNTY
STAT        .                                             UNKNOWN :STATE
CTRY        .                                              Norway :COUNTRY
SRVC        .                                             UNKNOWN :SERVICE COMPANY
DATE        .                                             UNKNOWN :LOG DATE
UWI         .                                    NO 6608/10-B-4 H :UNIQUE WELL ID
XCOORD      .                                       457114.155174 :SURFACE X
YCOORD      .                                      7322136.377523 :SURFACE Y
LAT         .                                           66.015409 :LATITUDE
LON         .                                            8.054547 :LONGITUDE
ELEV        .M                                            22.0000 :SURFACE ELEV
ELEV_TYPE   .                                                  KB :ELEV TYPE
~CURVE INFORMATION
#MNEMONIC.UNIT        API CODE       : CURVE DESCRIPTION
#------------------------------------------------------------------------------
DEPTH    .M                          : Measured Depth
TVD      .M                          : True Vertical Depth (TVD)
TVDSS    .M                          : True Vertical Depth (TVDSS)
DT       .us/ft                      : DT:UNKNOWN:rC:NONE:v1 
DTS      .us/ft                      : DTS:UNKNOWN:rC:NONE:v1 
GR       .API         UNKNOWN        : GR:GR:rC::v0 (auto-composite)
KLOGH    .mD          UNKNOWN        : KLOGH:PETROWORKS:rC:NONE:v1 
NPHI     .v/v_decimal                : NPHI:UNKNOWN:rC:NONE:v1 
PHIF     .v/v_decimal UNKNOWN        : PHIF:PETROWORKS:rC:NONE:v1 
RHOB     .g/cm3       UNKNOWN        : RHOB:UNKNOWN:rC:NONE:v1 
SW       .v/v_decimal UNKNOWN        : SW:PETROWORKS:rC:NONE:v1 
VSH      .v/v_decimal UNKNOWN        : VSH:PETROWORKS:rC:NONE:v1 
~A     DEPTH         TVD       TVDSS           DT          DTS           GR        KLOGH         NPHI         PHIF         RHOB           SW          VSH
# ...
   2594.1250   2570.1270  -2548.1270     104.3699     171.5784      99.8220      23.1971       0.2005       0.2251       2.2885       0.2805       0.1046
   2594.2500   2570.2520  -2548.2520     103.9284     171.1525     103.5372      16.1237       0.2123       0.2179       2.2977       0.3025       0.1567
   2594.3750   2570.3770  -2548.3770     103.6497     171.0994     105.5463      16.9362       0.2182       0.2188       2.2983       0.3056       0.1719
   2594.5000   2570.5020  -2548.5020     103.5789     171.5119     106.0768      23.2270       0.2246       0.2252       2.2928       0.2362       0.1766
   2594.6250   2570.6270  -2548.6270     103.7232     172.3995     105.7514      36.6022       0.2383       0.2343       2.2872       0.2292       0.1970
   2594.7500   2570.7520  -2548.7520     104.0604     173.6377     103.7312      27.6858       0.2188       0.2287       2.2888       0.2325       0.1513
   2594.8750   2570.8770  -2548.8770     104.5203     174.8514     107.5652      21.7965       0.2285       0.2239       2.2934       0.2363       0.1912
   2595.0000   2571.0020  -2549.0020     105.0524     175.8887      99.6277      23.5670       0.2332       0.2255       2.2911       0.2338       0.2014
   2595.1250   2571.1270  -2549.1270     105.6350     176.7334     100.4084      33.5999       0.2348       0.2326       2.2793       0.2264       0.1892
   2595.2500   2571.2520  -2549.2520     106.2383     177.3986     113.3146      56.4643       0.2378       0.2430       2.2598       0.2171       0.1733
   2595.3750   2571.3767  -2549.3767     106.8190     177.9044     111.6092      99.8567       0.2422       0.2544       2.2386       0.2079       0.1591
   2595.5000   2571.5017  -2549.5017     107.2892     178.2195     110.0797     191.1122       0.2307       0.2674       2.2222       0.1923       0.0946
   2595.6250   2571.6267  -2549.6267     107.6075     178.3899     110.6710     174.7862       0.2126       0.2656       2.2137       0.1923       0.0436
   2595.7500   2571.7517  -2549.7517     107.7571     178.4292     113.6780     185.6831       0.2090       0.2668       2.2115       0.1920       0.0300
   2595.8750   2571.8767  -2549.8767     107.7154     178.3403     117.8627     208.5812       0.2317       0.2691       2.2126       0.1942       0.0926
   2596.0000   2572.0017  -2550.0017     107.4684     178.1012     121.2586     183.6376       0.2702       0.2666       2.2150       0.2043       0.2132
   2596.1250   2572.1267  -2550.1267     107.0204     177.5974     121.7682     142.2460       0.2522       0.2615       2.2215       0.2140       0.1715
   2596.2500   2572.2517  -2550.2517     106.4650     176.7579     124.5218      90.2402       0.2389       0.2523       2.2327       0.2208       0.1531
   2596.3750   2572.3767  -2550.3767     105.9078     175.8735     124.1460      56.0467       0.2512       0.2428       2.2470       0.2301       0.2123
   2596.5000   2572.5017  -2550.5017     105.4117     175.1422     118.5644      35.9380       0.2448       0.2339       2.2642       0.2406       0.2145
   2596.6250   2572.6267  -2550.6267     105.0308     174.6941     110.1066      22.5170       0.2329       0.2246       2.2826       0.2525       0.2017
   2596.7500   2572.7517  -2550.7517     104.8067     174.5720     105.5233      12.5976       0.2857       0.2129       2.2990       0.2710       0.3290
   2596.8750   2572.8767  -2550.8767     104.7821     174.7287     116.8530      15.7432       0.2834       0.2174       2.2990       0.2665       0.3695
   2597.0000   2573.0017  -2551.0017     104.9000     175.0045     121.3632      34.4941       0.2500       0.2331       2.2711       0.2519       0.2328
   2597.1250   2573.1267  -2551.1267     105.1215     175.3412     120.2779      99.1505       0.2401       0.2542       2.2224       0.2283       0.1514
   2597.2500   2573.2517  -2551.2517     105.3955     175.6959     111.8770     419.8737       0.2150       0.2831       2.1664       0.1988       0.0070
   2597.3750   2573.3767  -2551.3767     105.6580     176.0191      98.3181    1887.8536       0.1564       0.3132       2.1217       0.1723       0.0010
   2597.5000   2573.5017  -2551.5017     105.8303     176.2324      94.2000    2000.0000       0.1876       0.3305       2.1143       0.1627       0.0010
   2597.6250   2573.6267  -2551.6267     105.8333     176.2671     104.7417     649.9805       0.1952       0.2919       2.1602       0.2019       0.0010
   2597.7500   2573.7517  -2551.7517     105.7071     176.2643     109.8291     100.1172       0.2539       0.2544       2.2273       0.2405       0.1926
   2597.8750   2573.8767  -2551.8767     105.5053     176.3215     114.3651      17.7007       0.2909       0.2197       2.2913       0.2823       0.3861
   2598.0000   2574.0017  -2552.0017     105.2930     176.4840     116.5679       4.9339       0.2933       0.1942       2.3371       0.3202       0.4312
   2598.1250   2574.1267  -2552.1267     105.1379     176.7462     110.0972       2.6795       0.2989       0.1819       2.3585       0.3459       0.3713
   2598.2500   2574.2517  -2552.2517     105.0977     177.0809     108.4225       3.6093       0.2574       0.1879       2.3519       0.3371       0.3558
   2598.3750   2574.3767  -2552.3767     105.1427     177.4701     111.4919       6.7494       0.2466       0.2004       2.3278       0.3186       0.3007
   2598.5000   2574.5017  -2552.5017     105.2416     177.8834     113.5389      12.5747       0.2595       0.2129       2.3002       0.2971       0.3087
   2598.6250   2574.6267  -2552.6267     105.3775     178.2824     113.2035      22.5211       0.2748       0.2246       2.2771       0.2781       0.3259
   2598.7500   2574.7517  -2552.7517     105.5362     178.6158     113.3154      35.4245       0.2710       0.2336       2.2637       0.2666       0.2934
   2598.8750   2574.8767  -2552.8767     105.7060     178.8135     122.6774      40.8650       0.2363       0.2365       2.2620       0.2648       0.1837
   2599.0000   2575.0017  -2553.0017     105.8869     178.7985     115.6114      26.3656       0.2400       0.2277       2.2725       0.2772       0.2150
   2599.1250   2575.1267  -2553.1267     106.0738     178.6877     117.2820      19.7333       0.2553       0.2219       2.2863       0.2912       0.2748
   2599.2500   2575.2517  -2553.2517     106.2562     178.5322     117.2905      16.2304       0.2719       0.2180       2.2957       0.2998       0.3339
   2599.3750   2575.3767  -2553.3767     106.4276     178.3608     115.4093      13.8722       0.2788       0.2149       2.2977       0.3049       0.3616
   2599.5000   2575.5017  -2553.5017     106.5849     178.1848     116.0628      13.7741       0.2700       0.2147       2.2934       0.3089       0.3352
   2599.6250   2575.6267  -2553.6267     106.7260     178.0125     105.8212      17.4683       0.2687       0.2195       2.2877       0.3007       0.3202
   2599.7500   2575.7517  -2553.7517     106.8299     177.8949     112.8112      19.3973       0.2832       0.2216       2.2848       0.3031       0.3584
   2599.8750   2575.8767  -2553.8767     106.8778     177.8126     114.9340      17.6306       0.3029       0.2197       2.2873       0.3119       0.4161
   2600.0000   2576.0017  -2554.0017     106.8603     177.6987     113.2274      15.4255       0.3046       0.2170       2.2922       0.3173       0.4003
   2600.1250   2576.1267  -2554.1267     106.7766     177.4995     113.3919      15.0074       0.2829       0.2164       2.2956       0.3137       0.3702
   2600.2500   2576.2517  -2554.2517     106.6360     177.2070     121.1050      16.9151       0.2652       0.2188       2.2940       0.3058       0.3111
   2600.3750   2576.3767  -2554.3767     106.4896     176.8728     121.3345      17.2275       0.2329       0.2192       2.2874       0.3086       0.2144
   2600.5000   2576.5017  -2554.5017     106.3891     176.6217     110.1828      20.5910       0.2404       0.2228       2.2802       0.3014       0.2279
